Dataset_sequence_ID,Data_Entry,Cave_Datas,Biogeographical.realm,Region,Country,Cave_Name,Latitude,Longitude,Canopy.cov,Tree.dens,Freshwater.dist,Bareground.change,Shortveg.change,Talltree.change,Urban.dist,Road.dist,Mine.dens,Nighlight,Pesticide.exp,Pop.dens
Dataset_3_001,BC 003,S 001,Afrotropical,Africa,South Africa,Tongaat,-29.55556,31.13333,0,37391.6,4,0,0,0,0,0,0,641,0,1112.41
Dataset_3_002,BC 011,S 002,Afrotropical,Africa,Madagascar,Anjohikinakina cave,-19.00983,44.76767,0,49033.4,21.9706,0,7,-7,80799,2000,0,58,0,19.115
Dataset_3_003,BC 012,S 003,Afrotropical,Africa,Madagascar,Namaza canyon,-22.54,45.38,0,0,23.4853,0,0,0,118794,1000,0,65,0,14.8213
Dataset_3_004,BC 013,S 004,Afrotropical,Africa,Kenya,Watamu,-3.35122,40.01528,0,0,18.0711,0,0,0,0,0,0,629,0,3735.48
Dataset_3_005,BC 044,S 005,Indomalayan,Asia,Laos DPR,Tam Kokhair,18.07361,104.47778,0,0,1.41421,0,8,-8,7000,0,0,49,0,10.5304
Dataset_3_006,BC 054,S 005,Indomalayan,Asia,Laos DPR,Tam Pha Muang,18.00833,104.68056,0,0,1.41421,-3,-11,15,15414.2,6242.64,49.7359,41,0,24.8893
Dataset_3_007,BC 057,S 005,Indomalayan,Asia,Laos DPR,Tam Lort,17.5875,104.8125,26,0,1.41421,0,0,0,8656.85,0,0,43,0,6.91305
Dataset_3_008,BC 058,S 005,Indomalayan,Asia,Laos DPR,Tam Lom,17.5875,104.8125,26,0,1.41421,0,0,0,8656.85,0,0,43,0,6.91305
Dataset_3_009,BC 059,S 005,Indomalayan,Asia,Laos DPR,Tam Jingjunchott,17.55417,104.81944,0,0,1.41421,0,0,0,5656.85,0,0,46,0,95.4044
Dataset_3_010,BC 063,S 005,Indomalayan,Asia,Laos DPR,Tom Quaie,17.55417,104.825,0,0,1.41421,0,0,0,6656.85,0,0,56,0,54.1493
Dataset_3_011,BC 066,S 005,Indomalayan,Asia,Laos DPR,"Ban Pontong, Mauang",17.57778,104.825,0,0,1.41421,0,0,0,8071.07,0,0,42,0,6.91305
Dataset_3_012,BC 074,S 005,Indomalayan,Asia,Laos DPR,Thakhek District,17.55694,104.82639,0,0,1.41421,0,0,0,6656.85,0,0,56,0,54.1493
Dataset_3_013,BC 075,S 005,Indomalayan,Asia,Laos DPR,Tam Pha Deng,17.55694,104.82778,0,0,1.41421,0,0,0,6656.85,0,0,56,0,54.1493
Dataset_3_014,BC 076,S 005,Indomalayan,Asia,Laos DPR,Tam Nam Phae,17.55972,104.82917,0,0,9.41421,0,0,0,6656.85,0,0,56,0,34.9433
Dataset_3_015,BC 077,S 005,Indomalayan,Asia,Laos DPR,Tam Khun Fart 1,17.58056,104.82917,0,0,9.41421,0,0,0,9071.07,0,0,42,0,6.91305
Dataset_3_016,BC 078,S 005,Indomalayan,Asia,Laos DPR,Tam Sumpoy,17.54861,104.83611,0,0,9.41421,0,0,0,5656.85,0,0,42,0,11.6732
Dataset_3_017,BC 090,S 005,Indomalayan,Asia,Laos DPR,Tam Patchan,17.56944,104.85,0,0,22.2426,0,0,0,8071.07,1000,0,50,0,21.1938
Dataset_3_018,BC 111,S 005,Indomalayan,Asia,Laos DPR,Ban Vieng,17.5975,104.96583,0,0,18.3137,0,0,0,13071.1,3828.43,0,45,0,2.30753
Dataset_3_019,BC 118,S 005,Indomalayan,Asia,Laos DPR,Tam Diphyne,17.60139,104.97778,0,0,26.8284,0,0,0,13071.1,4242.64,0,49,0,12.4231
Dataset_3_020,BC 119,S 005,Indomalayan,Asia,Laos DPR,Tam Pra 2,17.60139,104.97917,0,0,26.8284,0,0,0,13071.1,4242.64,0,47,0,12.4231
Dataset_3_021,BC 120,S 005,Indomalayan,Asia,Laos DPR,Tam Nam 1,17.52306,105.06528,0,39899.2,26.8284,0,24,-24,8656.85,0,0,45,0,10.3138
Dataset_3_022,BC 122,S 005,Indomalayan,Asia,Laos DPR,Tam Pra 1,17.52222,105.06667,27,0,26.8284,0,24,-24,8656.85,0,0,50,0,12.4371
Dataset_3_023,BC 123,S 005,Indomalayan,Asia,Laos DPR,Ban Mouang Khai,17.53167,105.07444,0,0,26.8284,0,24,-24,10071.1,0,0,51,0,10.3138
Dataset_3_024,BC 124,S 005,Indomalayan,Asia,Laos DPR,Tam Bing,17.53056,105.07917,0,0,26.8284,0,24,-24,10071.1,0,0,37,0,71.2603
Dataset_3_025,BC 128,S 006,Indomalayan,Asia,Vietnam,An Tinh Cave,48.81666,16.64,0,0,4,-5,-7,13,1000,0,0,104,0,141.726
Dataset_3_026,BC 152,S 006,Indomalayan,Asia,Vietnam,Na Phong Cave,22.38333,105.6,0,0,4,0,0,0,20799,0,0,52,0,56.0699
Dataset_3_027,BC 163,S 006,Indomalayan,Asia,Vietnam,Lung Trang Cave,22.18333,106.05,38,45600.4,8.24264,0,-9,10,11828.4,0,0,29,12225,47.4775
Dataset_3_028,BC 185,S 008,Indomalayan,Asia,Thailand,Wat Tam Pha Phu,17.56667,101.7,0,0,45.3553,0,0,0,0,0,49.7359,110,0,68.9729
Dataset_3_029,BC 195,S 008,Indomalayan,Asia,Thailand,Tam Pha Phot,17.73333,101.76667,0,0,45.3553,0,0,0,3414.21,0,99.4718,68,0,58.2873
Dataset_3_030,BC 233,S 009,Indomalayan,Asia,Sri Lanka,S2 Sri Lanka,7.06264,79.94022,0,0,36.9411,0,0,0,0,0,49.7359,422,0,3615.4
Dataset_3_031,BC 234,S 009,Indomalayan,Asia,Sri Lanka,S17 Sri Lanka,7.07022,80.03489,0,0,36.9411,0,0,0,0,0,0,300,0,3090.34
Dataset_3_032,BC 235,S 009,Indomalayan,Asia,Sri Lanka,S3 Sri Lanka,7.06253,80.04839,0,0,36.9411,0,0,0,0,0,0,128,0,773.716
Dataset_3_033,BC 236,S 009,Indomalayan,Asia,Sri Lanka,S1 Sri Lanka,7.06297,80.04858,0,0,36.9411,0,0,0,0,0,0,128,0,773.716
Dataset_3_034,BC 237,S 009,Indomalayan,Asia,Sri Lanka,S4 Sri Lanka,7.06297,80.04864,0,0,36.9411,0,0,0,0,0,0,128,0,773.716
Dataset_3_035,BC 238,S 009,Indomalayan,Asia,Sri Lanka,S7 Sri Lanka,7.06406,80.04869,0,0,36.9411,0,0,0,0,0,0,128,0,773.716
Dataset_3_036,BC 239,S 009,Indomalayan,Asia,Sri Lanka,S8 Sri Lanka,7.06408,80.04875,0,0,36.9411,0,0,0,0,0,0,128,0,773.716
Dataset_3_037,BC 240,S 009,Indomalayan,Asia,Sri Lanka,S9 Sri Lanka,7.06439,80.04883,0,0,36.9411,0,0,0,0,0,0,128,0,773.716
Dataset_3_038,BC 241,S 009,Indomalayan,Asia,Sri Lanka,S19 Sri Lanka,7.07039,80.04886,0,0,36.9411,0,0,0,0,0,0,140,0,961.764
Dataset_3_039,BC 242,S 009,Indomalayan,Asia,Sri Lanka,S6 Sri Lanka,7.06417,80.04894,0,0,36.9411,0,0,0,0,0,0,128,0,773.716
Dataset_3_040,BC 243,S 009,Indomalayan,Asia,Sri Lanka,S18 Sri Lanka,7.07083,80.04906,0,0,36.9411,0,0,0,0,0,0,140,0,961.764
Dataset_3_041,BC 244,S 009,Indomalayan,Asia,Sri Lanka,S5 Sri Lanka,7.06381,80.04911,0,0,36.9411,0,0,0,0,0,0,128,0,773.716
Dataset_3_042,BC 245,S 009,Indomalayan,Asia,Sri Lanka,S14 Sri Lanka,7.06806,80.04933,0,0,36.9411,0,0,0,0,0,0,140,0,961.764
Dataset_3_043,BC 246,S 009,Indomalayan,Asia,Sri Lanka,S10 Sri Lanka,7.065,80.04939,0,0,36.9411,0,0,0,0,0,0,128,0,773.716
Dataset_3_044,BC 247,S 009,Indomalayan,Asia,Sri Lanka,S11 Sri Lanka,7.06503,80.04942,0,0,36.9411,0,0,0,0,0,0,128,0,773.716
Dataset_3_045,BC 248,S 009,Indomalayan,Asia,Sri Lanka,S16 Sri Lanka,7.06922,80.04953,0,0,26.1421,0,0,0,0,0,0,140,0,961.764
Dataset_3_046,BC 249,S 009,Indomalayan,Asia,Sri Lanka,S15 Sri Lanka,7.06778,80.04964,0,0,44.1421,0,0,0,0,0,0,140,0,961.764
Dataset_3_047,BC 250,S 009,Indomalayan,Asia,Sri Lanka,S12 Sri Lanka,7.06903,80.05139,25,0,44.1421,0,0,0,0,0,0,125,0,542.22
Dataset_3_048,BC 251,S 009,Indomalayan,Asia,Sri Lanka,S13 Sri Lanka,7.06908,80.05147,25,0,44.1421,0,0,0,0,0,0,125,0,542.22
Dataset_3_049,BC 253,S 010,Indomalayan,Asia,Indonesia,Celeng,-7.70633,109.39387,30,0,13.8995,0,0,0,9071.07,0,0,53,0,854.402
Dataset_3_050,BC 257,S 010,Indomalayan,Asia,Indonesia,Kampil,-7.70648,109.39727,30,0,33.6274,0,0,0,9071.07,0,0,51,0,854.402
Dataset_3_051,BC 258,S 010,Indomalayan,Asia,Indonesia,Liyah,-7.70653,109.3973,30,0,33.6274,0,0,0,9071.07,0,0,51,0,854.402
Dataset_3_052,BC 273,S 011,Indomalayan,Asia,Malaysia,Wind Cave Nature Reserve,1.41525,110.13515,0,0,11.4853,0,-20,21,1414.21,0,99.4718,48,15904,74.125
Dataset_3_053,BC 293,S 013,Indomalayan,Asia,Philippines,"Cave 1, Carmen, Agusan del Norte",9.0937,125.20941,0,0,6,0,0,0,0,0,0,21,0,695.685
Dataset_3_054,BC 294,S 013,Indomalayan,Asia,Philippines,"Cave 2, Carmen, Agusan del Norte",9.09292,125.21206,0,0,6,0,0,0,0,0,0,21,0,695.685
Dataset_3_055,BC 296,S 013,Indomalayan,Asia,Philippines,"Cave 3, Carmen, Agusan del Norte",9.09292,125.21206,0,0,6,0,0,0,0,0,0,21,0,695.685
Dataset_3_056,BC 299,S 013,Indomalayan,Asia,Philippines,Humilog cave,9.05246,125.56042,0,0,6,0,0,0,6000,0,0,41,0,581.874
Dataset_3_057,BC 301,S 014,Indomalayan,Asia,Philippines,Bulod cave,9.81878,126.01353,0,0,5.65685,0,-17,17,0,0,0,49,0,416.499
Dataset_3_058,BC 302,S 014,Indomalayan,Asia,Philippines,Bulod cave 2,9.81881,126.01353,0,0,78.799,0,-17,17,0,0,0,49,0,416.499
Dataset_3_059,BC 307,S 014,Indomalayan,Asia,Philippines,Sumiyot cave,9.76364,126.03928,0,0,39.0416,0,-34,35,0,0,0,56,0,355.778
Dataset_3_060,BC 308,S 014,Indomalayan,Asia,Philippines,Sta. Monica cave,9.98292,126.05364,0,0,39.0416,0,0,0,0,0,0,53,0,248.444
Dataset_3_061,BC 309,S 014,Indomalayan,Asia,Philippines,Guano cave,10.018,126.07422,0,0,39.0416,0,0,0,0,1000,0,65,0,763.222
Dataset_3_062,BC 313,S 014,Indomalayan,Asia,Philippines,Patag cave,9.99856,126.08011,0,47895.2,16.0711,0,0,0,0,0,0,46,0,369.708
Dataset_3_063,BC 315,S 014,Indomalayan,Asia,Philippines,Buho cave,9.80306,126.10628,29,0,16.6569,0,0,0,0,0,49.7359,47,0,54.019
Dataset_3_064,BC 328,S 015,Indomalayan,Asia,Philippines,Nan-od,9.74694,124.26382,26,0,20.0711,0,-30,30,19485.3,2000,0,48,0,65.381
Dataset_3_065,BC 342,S 015,Indomalayan,Asia,Philippines,Bugsoc,9.76407,124.2658,0,0,33.2843,0,-18,18,21485.3,2000,0,50,0,417.709
Dataset_3_066,BC 374,S 016,Indomalayan,Asia,Philippines,Mat Weaving Cave,11.77007,121.89508,26,0,14.4142,0,-35,36,14071.1,0,0,43,0,566.432
Dataset_3_067,BC 380,S 016,Indomalayan,Asia,Philippines,Balo Cave 1,11.76102,121.90675,0,0,10.6569,0,-33,34,0,1000,0,46,0,1385.59
Dataset_3_068,BC 381,S 016,Indomalayan,Asia,Philippines,Balo Cave 2,11.76102,121.90675,0,0,11.6569,0,-33,34,0,1000,0,46,0,1385.59
Dataset_3_069,BC 385,S 016,Indomalayan,Asia,Philippines,Maramig Cave,11.76562,121.95812,0,0,12.6569,0,-31,32,13828.4,0,0,46,0,111.904
Dataset_3_070,BC 388,S 016,Indomalayan,Asia,Philippines,Malalison Island Cave 2,11.41205,122.01553,0,0,12.6569,0,0,0,0,0,0,24,0,1140.18
Dataset_3_071,BC 389,S 016,Indomalayan,Asia,Philippines,Malalison Island Cave 1,11.41205,122.01553,0,0,12.6569,0,0,0,0,0,0,24,0,1140.18
Dataset_3_072,BC 391,S 016,Indomalayan,Asia,Philippines,Seven Room Cave,11.22272,122.08212,0,0,12.6569,0,0,0,12313.7,1000,0,34,0,292.17
Dataset_3_073,BC 393,S 016,Indomalayan,Asia,Philippines,Church Cave (b),11.22665,122.08357,26,0,12.6569,0,0,0,12313.7,1000,0,47,0,193.895
Dataset_3_074,BC 394,S 016,Indomalayan,Asia,Philippines,Aguila Cave,11.51655,122.0874,0,0,12.6569,0,0,0,11828.4,0,0,21,0,466.772
Dataset_3_075,BC 396,S 017,Indomalayan,Asia,Myanmar,"Kyan Taing Aung Cave, Sagainf Hill Range",21.89833,95.99932,0,0,10.4142,0,0,0,0,0,0,668,0,246.449
Dataset_3_076,BC 405,S 018,Indomalayan,Asia,Indonesia,Wailepe 1,-0.31739,130.89392,0,64670.4,7,0,0,0,13656.9,1000,0,43,0,7.65223
Dataset_3_077,BC 407,S 018,Austral-Oceania,Asia,Indonesia,Aleg Afni,-0.30828,130.90706,0,43290.1,2.82843,0,0,0,15071.1,0,0,23,0,7.65223
Dataset_3_078,BC 422,S 021,Indomalayan,Asia,India,"Koilighogar, Jharsuguda district",21.91936,83.6531,0,53914.3,4.24264,0,0,0,2414.21,0,0,46,0,114.348
Dataset_3_079,BC 423,S 021,Indomalayan,Asia,India,"Hemagiri, Sundegarh district",22.194,83.96501,0,39507.2,8.41421,0,0,1,2828.43,0,0,52,0,183.442
Dataset_3_080,BC 426,S 021,Indomalayan,Asia,India,"Similipal Biosphere reserve, Mayurbhanj district",21.76835,86.48396,25,37306.4,13.8995,0,0,0,10485.3,0,49.7359,41,0,98.2674
Dataset_3_081,BC 448,S 022,Indomalayan,Asia,Vietnam,Phia Oac-Phia Den Nature (Bamboo forest),22.5925,105.88111,34,41560.9,8.24264,0,-18,19,23485.3,0,49.7359,42,0,48.5208
Dataset_3_082,BC 455,S 022,Indomalayan,Asia,Vietnam,Phia Oac-Phia Den Nature (Low Montane broadleaf evergreen forest),22.605,105.88306,29,47838.9,8.24264,0,0,0,23071.1,0,99.4718,36,0,48.5208
Dataset_3_083,BC 460,S 024,Indomalayan,Asia,India,Unknown cave,26.39698,73.05228,0,0,10.8995,0,0,0,0,0,0,418,0,667.317
Dataset_3_084,BC 461,S 025,Indomalayan,Asia,Sri Lanka,Unknown cave,7.95,80.75,0,0,45.3553,0,0,0,10485.3,0,0,55,0,210.251
Dataset_3_085,BC 462,S 026,Indomalayan,Asia,India,Unknown cave,12.78333,74.86667,0,0,0,-8,-4,14,0,1000,0,315,0,1895.83
Dataset_3_086,BC 474,S 027,Palearctic,Asia,Iran,"Kazerun, Konartakteh cave",29.56667,51.5,0,0,9.41421,0,0,0,1000,0,49.7359,136,0,57.9188
Dataset_3_087,BC 508,S 027,Palearctic,Asia,Iran,"Farashband-Aviz, Chak cave",28.93333,52.03333,0,0,17.4853,27,-27,0,4242.64,1000,0,142,0,7.81894
Dataset_3_088,BC 519,S 027,Palearctic,Asia,Iran,"Shiraz, Pardis cave",29.78333,52.46667,0,0,2.41421,0,0,0,0,0,0,634,0,278.784
Dataset_3_089,BC 520,S 027,Palearctic,Asia,Iran,"Firuz Abad, Serizjan cave",28.93333,52.53333,0,0,2.41421,0,0,0,1000,0,0,124,0,35.1563
Dataset_3_090,BC 521,S 027,Afrotropical,Asia,Iran,"Shiraz, Eshkaft Boland cave",29.6,52.6,0,0,2.41421,0,0,0,0,0,248.68,765,0,278.784
Dataset_3_091,BC 542,S 027,Afrotropical,Asia,Iran,"Ghirzakrin, Abgram cave",28.3,53.05,0,0,2.41421,0,0,0,1000,0,0,128,0,18.9162
Dataset_3_092,BC 550,S 027,Palearctic,Asia,Iran,"Arsanjan, Eshkaft Khobrizi cave",29.81667,53.23333,0,0,2.41421,0,0,0,1414.21,0,0,113,0,47.9003
Dataset_3_093,BC 553,S 027,Afrotropical,Asia,Iran,"Arsanjan, Eshkaft-e, tireh kol cave",29.81667,53.23333,0,0,2.41421,0,0,0,1414.21,0,0,113,0,47.9003
Dataset_3_094,BC 554,S 027,Afrotropical,Asia,Iran,"Arsanjan, Kaleh Nazari cave",29.81667,53.23333,0,0,2.41421,0,0,0,1414.21,0,0,113,0,47.9003
Dataset_3_095,BC 581,S 027,Afrotropical,Asia,Iran,"Jahrom, Tadovan (Canae Garbu) cave",28.51667,53.55,0,0,4.41421,7,-7,0,0,0,0,648,0,38.6334
Dataset_3_096,BC 590,S 027,Palearctic,Asia,Iran,Larestan-Bolghan cave,28.1,53.58333,0,0,8.41421,24,-24,0,5000,0,0,134,0,15.5021
Dataset_3_097,BC 597,S 027,Afrotropical,Asia,Iran,"Jahrom, Fereshteh Jan, qanat",28.21667,53.93333,0,0,8.41421,0,0,0,3828.43,0,0,135,0,15.5021
Dataset_3_098,BC 602,S 027,Palearctic,Asia,Iran,"Larestan, Abbarik, tunner",27.71667,54.31667,0,0,8.41421,6,-6,0,0,0,0,222,0,15.5021
Dataset_3_099,BC 608,S 027,Palearctic,Asia,Iran,"Darab, Fath cave",28.53333,55.21667,0,0,8.41421,13,-13,0,7242.64,0,0,116,0,32.1137
Dataset_3_100,BC 647,S 029,Indomalayan,Asia,Cambodia,"La Ang Prakiu no. 2, Sampeu Battambang",13.06624,103.05166,0,0,24.2132,-6,4,1,6828.43,0,149.208,54,0,101.634
Dataset_3_101,BC 648,S 029,Indomalayan,Asia,Cambodia,"Ta Rumm no. 1, Sampeu Battambang",13.02288,103.09524,0,0,48.0416,-4,7,0,5656.85,0,99.4718,44,0,224.033
Dataset_3_102,BC 649,S 029,Indomalayan,Asia,Cambodia,"La Ang Pracheu (Ta Rumm no. 2). Sampeu, Battambang",13.02655,103.09983,0,0,48.0416,-4,7,0,5242.64,0,99.4718,38,0,224.032
Dataset_3_103,BC 652,S 029,Indomalayan,Asia,Cambodia,Dei Ho / Thom Ken,10.61684,104.243,0,0,25.799,0,0,0,2414.21,0,99.4718,58,0,198.969
Dataset_3_104,BC 653,S 029,Indomalayan,Asia,Cambodia,Bat Khteas,10.64386,104.26998,0,0,42.4558,0,9,-11,4828.43,0,99.4718,55,0,207.002
Dataset_3_105,BC 655,S 029,Indomalayan,Asia,Cambodia,Loang,10.72394,104.34183,0,0,42.4558,7,0,-8,10242.6,0,49.7359,53,0,153.717
Dataset_3_106,BC 656,S 029,Indomalayan,Asia,Cambodia,Pracheav,10.57318,104.47037,0,0,42.4558,0,0,0,11242.6,0,49.7359,59,0,310.571
Dataset_3_107,BC 657,S 029,Indomalayan,Asia,Cambodia,Toeuk,10.43996,104.4806,0,0,43.5269,0,0,0,2828.43,0,0,56,0,197.779
Dataset_3_108,BC 658,S 029,Indomalayan,Asia,Cambodia,Toeuk (Sam Pet),10.43996,104.4806,0,0,43.5269,0,0,0,2828.43,0,0,56,0,197.779
Dataset_3_109,BC 661,S 029,Indomalayan,Asia,Cambodia,"Ta Rumm no. 3, Sampeu Battambang",13.0231,0,0,0,43.0122,0,0,0,0,3414.21,0,872,0,36.3766
Dataset_3_110,BC 662,S 030,Palearctic,Asia,Iran,Telesm-e Dobiran,33.83333,46.3,0,0,16.4142,0,0,0,0,0,0,765,0,55.8559
Dataset_3_111,BC 664,S 030,Palearctic,Asia,Iran,Telesm-e Sarab,33.76667,46.36667,0,0,25.3848,0,0,0,0,0,0,161,0,55.8559
Dataset_3_112,BC 672,S 030,Palearctic,Asia,Iran,Chehel Sotoon,33.76667,46.61667,0,0,25.3848,0,0,0,0,0,0,463,0,31.6286
Dataset_3_113,BC 678,S 030,Palearctic,Asia,Iran,Bisheh Deraz,32.81667,46.96667,0,0,26.6274,-9,0,0,10414.2,1000,0,133,0,11.0025
Dataset_3_114,BC 699,S 031,Austral-Oceania,Australia,Australia,Robertson cave,-36.96667,140.75,0,0,8.41421,0,0,0,1000,0,0,297,0,262.241
Dataset_3_115,BC 700,S 032,Austral-Oceania,Australia,Australia,Kroombit Tops,-24.37715,151.04131,31,53597.8,8.41421,0,0,0,23242.6,4000,0,42,0,0.16488
Dataset_3_116,BC 720,S 033,Palearctic,Europe,Turkey,Sulu cave,41.84139,27.55694,0,35301.4,0,0,-9,9,12828.4,0,0,48,0,49.8592
Dataset_3_117,BC 744,S 034 a,Palearctic,Europe,Czech Republic,Na Turoldo cave A,48.81666,16.64,0,0,7.07107,-5,-7,13,1000,0,0,104,0,141.726
Dataset_3_118,BC 759,S 034 b,Palearctic,Europe,Czech Republic,Na Turoldo cave B,48.81666,16.64,0,0,2,-5,-7,13,1000,0,0,104,0,141.726
Dataset_3_119,BC 1119,S 038,Palearctic,Europe,Bulgaria,"Dinevata pesht cave, v. Gintzi",42.03333,3.1,0,0,-9999,0,5,-6,0,0,0,109,0,56.1939
Dataset_3_120,BC 1166,S 038,Palearctic,Europe,Bulgaria,Suhi,42.96667,22.88333,26,65427.2,-9999,0,-30,31,4242.64,0,0,51,0,15.4761
Dataset_3_121,BC 1169,S 038,Palearctic,Europe,Bulgaria,Shamaka,41.5,22.96667,0,0,-9999,-8,-35,43,11071.1,0,0,47,0,73.3966
Dataset_3_122,BC 1175,S 038,Palearctic,Europe,Bulgaria,Golyamata Balabanova Dupka Cave,42.81667,23.1,0,0,2.41421,0,0,0,4242.64,0,0,72,0,53.032
Dataset_3_123,BC 1203,S 038,Palearctic,Europe,Bulgaria,"Kalna matnitza cave, v. Glavatzi, Vratchanski Nat. Park B",41.36667,23.46667,0,35737.1,35.5269,-4,0,0,5000,0,0,64,0,5.24316
Dataset_3_124,BC 1219,S 038,Palearctic,Europe,Bulgaria,Prilepnata 3,41.88333,23.56667,31,68001.8,11.3137,0,-20,20,4414.21,0,0,39,0,43.8446
Dataset_3_125,BC 1220,S 038,Palearctic,Europe,Bulgaria,Prilepnata 4,41.88333,23.56667,31,68001.8,16,0,-20,20,4414.21,0,0,39,0,43.8446
Dataset_3_126,BC 1221,S 038,Palearctic,Europe,Bulgaria,Prilepnata 5,41.88333,23.56667,31,68001.8,7,0,-20,20,4414.21,0,0,39,0,43.8446
Dataset_3_127,BC 1222,S 038,Palearctic,Europe,Bulgaria,Prilepnata 6,41.88333,23.56667,31,68001.8,7,0,-20,20,4414.21,0,0,39,0,43.8446
Dataset_3_128,BC 1223,S 038,Palearctic,Europe,Bulgaria,Prilepnata 2,41.88333,23.56667,31,68001.8,7,0,-20,20,4414.21,0,0,39,0,43.8446
Dataset_3_129,BC 1251,S 038,Palearctic,Europe,Bulgaria,Toplya,43,24.06667,0,0,41.6985,0,-30,32,3828.43,0,0,65,0,23.7533
Dataset_3_130,BC 1279,S 038,Palearctic,Europe,Bulgaria,Parnitsite B,41.61667,24.38333,28,0,58.8284,0,0,0,13656.9,0,0,27,0,19.1217
Dataset_3_131,BC 1292,S 038,Palearctic,Europe,Bulgaria,Golyamata Mikrenska Peshtera cave,43.26667,24.51667,0,0,45.799,-2,0,0,11485.3,0,0,61,0,145.742
Dataset_3_132,BC 1302,S 038,Palearctic,Europe,Bulgaria,Nanin Kamak B,43.41667,24.85,0,0,9,0,0,0,4000,0,0,75,0,25.7306
Dataset_3_133,BC 1312,S 038,Palearctic,Europe,Bulgaria,Kanchova,43.71667,24.88333,0,0,16.1421,-7,4,4,1000,0,49.7359,96,0,21.3436
Dataset_3_134,BC 1342,S 038,Palearctic,Europe,Bulgaria,Prilepnata,42.13333,25.06667,0,0,7.07107,0,5,0,0,0,0,307,0,85.5748
Dataset_3_135,BC 1362,S 038,Palearctic,Europe,Bulgaria,Bacho Kiro cave,42.31667,25.46667,0,0,28.0416,-2,0,0,1414.21,0,0,71,0,39.5047
Dataset_3_136,BC 1383,S 038,Palearctic,Europe,Bulgaria,Vodnite,42.01667,25.75,0,0,14.4142,-5,0,0,1000,0,0,58,0,89.3022
Dataset_3_137,BC 1387,S 038,Palearctic,Europe,Bulgaria,Gyurgen Dere cave,42.03333,25.91667,0,0,41.2843,-5,4,0,5000,0,0,77,0,38.789
Dataset_3_138,BC 1428,S 038,Palearctic,Europe,Bulgaria,"Vodnata cave, v. Cerovo",43.26667,26.56667,0,0,32.9706,0,0,0,0,0,0,138,0,78.2602
Dataset_3_139,BC 1429,S 038,Palearctic,Europe,Bulgaria,Kesedzhiica,43.26667,26.56667,0,0,32.9706,0,0,0,0,0,0,138,0,78.2602
Dataset_3_140,BC 1430,S 038,Palearctic,Europe,Bulgaria,Suhata,43.26667,26.56667,0,0,32.9706,0,0,0,0,0,0,138,0,78.2602
Dataset_3_141,BC 1468,S 039,Palearctic,Europe,United Kingdom,"Pixies Hole, Chudleigh",50.6,-3.6,0,0,1.41421,0,0,0,2000,0,49.7359,58,13063,2529.65
Dataset_3_142,BC 1469,S 039,Palearctic,Europe,United Kingdom,Boulton's Rift,50.6,-3.6,0,0,1.41421,0,0,0,2000,0,49.7359,58,13063,2529.65
Dataset_3_143,BC 1484,S 039,Palearctic,Europe,United Kingdom,Foxwood,51.8,-3,0,0,62.4853,0,0,0,1414.21,0,0,66,0,36.1081
Dataset_3_144,BC 1485,S 039,Palearctic,Europe,United Kingdom,Gough's Old Cave,51.2,-2.7,0,0,62.4853,0,0,0,2414.21,0,0,66,0,357.146
Dataset_3_145,BC 1486,S 039,Palearctic,Europe,United Kingdom,Canyon,51.2,-2.7,0,0,71.3137,0,0,0,2414.21,0,0,66,0,357.146
Dataset_3_146,BC 1487,S 039,Palearctic,Europe,United Kingdom,White Spot,51.2,-2.7,0,0,71.3137,0,0,0,2414.21,0,0,66,0,357.146
Dataset_3_147,BC 1488,S 039,Palearctic,Europe,United Kingdom,Canyon Cave,51.2,-2.7,0,0,71.3137,0,0,0,2414.21,0,0,66,0,357.146
Dataset_3_148,BC 1490,S 039,Palearctic,Europe,United Kingdom,Long Hole,51.2,-2.7,0,0,69.4142,0,0,0,2414.21,0,0,66,0,357.146
Dataset_3_149,BC 1503,S 042,Palearctic,Europe,Romania,Gura Ponicoavei,44.56667,22.23333,0,0,22.8995,0,-27,28,7828.43,0,0,49,0,3.98787
Dataset_3_150,BC 1504,S 042,Palearctic,Europe,Romania,Grota Haiducilor,44.86667,22.4,0,63064.5,22.8995,0,-15,15,2414.21,0,0,53,0,100.628
Dataset_3_151,BC 1509,S 043,Palearctic,Europe,Romania,Underground site 1,44,22,0,0,24.6569,0,0,0,1000,0,0,54,0,12.5133
Dataset_3_152,BC 1510,S 043,Palearctic,Europe,Romania,Underground site 2,44,22,0,0,24.6569,0,0,0,1000,0,0,54,0,12.5133
Dataset_3_153,BC 1511,S 043,Palearctic,Europe,Romania,Underground site 3,44,22,0,0,24.6569,0,0,0,1000,0,0,54,0,12.5133
Dataset_3_154,BC 1512,S 043,Palearctic,Europe,Romania,Underground site 4,44,22,0,0,26.3137,0,0,0,1000,0,0,54,0,12.5133
Dataset_3_155,BC 1513,S 043,Palearctic,Europe,Romania,Underground site 5,44,22,0,0,26.3137,0,0,0,1000,0,0,54,0,12.5133
Dataset_3_156,BC 1563,S 044,Palearctic,Europe,Italy,Grotta delle Vene,44.1,7.8,30,201025,8.41421,0,-19,20,3414.21,0,0,32,0,0
Dataset_3_157,BC 1567,S 044,Palearctic,Europe,Italy,Grotta di Seu,39.8,8.3,0,0,8.41421,0,0,0,1000,0,0,22,0,0
Dataset_3_158,BC 1568,S 044,Palearctic,Europe,Italy,Grotta di San Pietro,39.4,8.4,0,0,8.41421,-2,-25,28,4000,0,49.7359,520,0,381.783
Dataset_3_159,BC 1569,S 044,Palearctic,Europe,Italy,Grotta Fluminiggiore,39.4,8.4,0,0,8.41421,-2,-25,28,4000,0,49.7359,520,0,381.783
Dataset_3_160,BC 1571,S 044,Palearctic,Europe,Italy,Grotta dei Fiori,39.1,8.5,0,0,9.41421,-10,0,11,0,0,198.944,125,0,29.1476
Dataset_3_161,BC 1573,S 044,Palearctic,Europe,Italy,Grota dei Pipistrelli,39.2,8.5,0,0,9.41421,-8,-6,14,0,0,149.208,155,0,275.285
Dataset_3_162,BC 1574,S 044,Palearctic,Europe,Italy,Grutta 'e su Sennori,39.2,8.5,0,0,9.41421,-8,-6,14,0,0,149.208,155,0,275.285
Dataset_3_163,BC 1578,S 044,Palearctic,Europe,Italy,Grotta di San Giovanni,39.3,8.5,0,0,9.41421,-6,0,9,0,0,348.151,152,0,4.47311
Dataset_3_164,BC 1581,S 044,Palearctic,Europe,Italy,Grotta dell'Inferno o del Diavolo,40.7,8.5,0,0,9.41421,-3,-3,8,0,0,0,171,0,128.691
Dataset_3_165,BC 1586,S 044,Palearctic,Europe,Italy,Grotta S'Acqua de is Caombus,39.9,8.6,0,0,9.41421,-13,0,9,0,0,0,728,0,3163.25
Dataset_3_166,BC 1598,S 044,Palearctic,Europe,Italy,Grotta di Monte Majore,40.6,8.8,0,0,15.4142,0,-6,9,5242.64,0,0,89,0,14.0757
Dataset_3_167,BC 1599,S 044,Palearctic,Europe,Italy,Grotta Sa Rocca Ulari,40.6,8.8,0,0,15.4142,0,-6,9,5242.64,0,0,89,0,14.0757
Dataset_3_168,BC 1621,S 044,Palearctic,Europe,Italy,Conca di Ziu Stevaneddu,40.9,9,0,66878.5,31.4558,0,-39,40,4828.43,0,0,45,0,0.00289
Dataset_3_169,BC 1628,S 044,Palearctic,Europe,Italy,Grotta Ferrata,45.9,9.3,32,51176.1,24,0,0,0,0,0,0,81,0,189.452
Dataset_3_170,BC 1636,S 044,Palearctic,Europe,Italy,Grotta Suttaterra de Sarpis,40.1,9.5,0,0,16.3137,0,-10,11,6000,0,0,60,0,0.07533
Dataset_3_171,BC 1637,S 044,Palearctic,Europe,Italy,Grotta Luigi Donni,40.1,9.5,0,0,16.8995,0,-10,11,6000,0,0,60,0,0.07533
Dataset_3_172,BC 1646,S 044,Palearctic,Europe,Italy,Grotta 1 di Capo Sferracavallo,39.7,9.6,0,0,13.6569,-10,-10,21,1414.21,0,0,73,0,16.3225
Dataset_3_173,BC 1649,S 044,Palearctic,Europe,Italy,Buco del Frate,45.5,10.4,0,0,35.6569,3,0,0,0,0,0,403,0,146.896
Dataset_3_174,BC 1653,S 044,Palearctic,Europe,Italy,Grotta di Bocca Lupara,44.1,11,0,62355.5,42.7279,0,-9,9,2414.21,1000,0,46,0,31.9124
Dataset_3_175,BC 1657,S 044,Palearctic,Europe,Italy,Grotta della Spilola,44.4,11.4,0,0,22.1421,0,0,0,0,0,0,133,0,148.156
Dataset_3_176,BC 1659,S 044,Palearctic,Europe,Italy,Grotta della guerra M.te Castellaro,45.4,11.6,0,0,40.6569,0,0,0,0,0,0,184,13027,68.7196
Dataset_3_177,BC 1662,S 044,Palearctic,Europe,Italy,Grotta di'Castell'Azzara,42.7,11.7,0,0,16.2426,0,-12,13,2828.43,0,49.7359,68,0,14.1317
Dataset_3_178,BC 1676,S 044,Palearctic,Europe,Italy,Grotta degli Ausi,41.4,13.2,0,0,37.799,-1,-10,12,0,0,49.7359,263,0,247.652
Dataset_3_179,BC 1681,S 044,Palearctic,Europe,Italy,Grotta di Colle Bianco,41.8,14.9,0,0,34.3848,6,4,-9,0,0,0,95,0,78.3988
Dataset_3_180,BC 1682,S 044,Palearctic,Europe,Italy,Grotta dei Pipistrelli Pantalica,37.1,15,0,0,34.3848,-4,0,0,3000,0,0,79,0,0.57042
Dataset_3_181,BC 1685,S 044,Palearctic,Europe,Italy,Grotta dell' angelo,40.7,15,0,57409.1,38.3848,0,-36,36,0,0,0,118,0,0
Dataset_3_182,BC 1687,S 044,Palearctic,Europe,Italy,Grotta di Calafarina,36.7,15.1,0,0,37.9706,0,0,0,0,0,0,200,0,37.8646
Dataset_3_183,BC 1708,S 045,Palearctic,Europe,Slovakia,Driny,48.5,17.4,0,0,9.41421,0,10,0,3828.43,0,0,47,0,121.895
Dataset_3_184,BC 1718,S 045,Palearctic,Europe,Slovakia,Michnova,48.6,19.8,28,50774.9,37.8995,0,-19,20,10242.6,0,0,40,0,33.4158
Dataset_3_185,BC 1719,S 045,Palearctic,Europe,Slovakia,Jaskyna Netopierov,48.6,19.8,28,50774.9,37.8995,0,-19,20,10242.6,0,0,40,0,33.4158
Dataset_3_186,BC 1731,S 045,Palearctic,Europe,Slovakia,Burda,48.5,20,0,0,14.8995,0,-24,26,7828.43,0,0,56,0,14.2823
Dataset_3_187,BC 1732,S 045,Palearctic,Europe,Slovakia,Chvalovska jaskyna,48.5,20.1,0,0,14.8995,-2,-35,38,10899.5,0,0,51,0,26.9004
Dataset_3_188,BC 1733,S 045,Palearctic,Europe,Slovakia,Bobacka,48.7,20.1,25,0,14.8995,0,-29,29,1414.21,0,0,52,0,315.42
Dataset_3_189,BC 1742,S 045,Palearctic,Europe,Slovakia,Belianska jaskyna,49.2,20.3,30,38728.6,14.8995,0,0,0,3414.21,0,0,36,0,9.4531
Dataset_3_190,BC 1767,S 045,Palearctic,Europe,Slovakia,Aksamitka,49.3,20.4,0,46454.5,22.1421,0,-34,35,9071.07,0,0,37,0,23.6947
Dataset_3_191,BC 1829,S 045,Palearctic,Europe,Slovakia,Priepast Certova diera,48.6,20.8,0,0,22.7279,-3,-45,49,2414.21,0,49.7359,65,0,32.2932
Dataset_3_192,BC 1830,S 045,Palearctic,Europe,Slovakia,Erna,48.6,20.8,0,0,22.7279,-3,-45,49,2414.21,0,49.7359,65,0,32.2932
Dataset_3_193,BC 1831,S 045,Palearctic,Europe,Slovakia,Hacavska jaskyna,48.6,20.8,0,0,23.1421,-3,-45,49,2414.21,0,49.7359,65,0,32.2932
Dataset_3_194,BC 1832,S 045,Palearctic,Europe,Slovakia,Krulova Bana,48.6,20.8,0,0,23.1421,-3,-45,49,2414.21,0,49.7359,65,0,32.2932
Dataset_3_195,BC 1907,S 046,Neotropical,North America,United States,Carlsbad Caverns,32.17699,-104.44101,0,0,14.4853,16,-16,0,4000,0,99.4718,92,0,1.56313
Dataset_3_196,BC 1918,S 047,Nearctic,North America,Canada,Minasville,45.2828,-63.8153,0,35438.9,12.5185,0,0,0,11656.9,0,0,39,0,3.13305
Dataset_3_197,BC 2009,S 049,Nearctic,North America,United States,Wyandotte Cave,38.2284,-86.2974,28,56708.1,18.9706,0,-8,8,4242.64,0,198.944,48,0,2.58635
Dataset_3_198,BC 2086,S 053,Nearctic,North America,Canada,White,40.47047,-74.48488,0,0,42.3848,0,0,0,0,0,298.416,765,0,2148.49
Dataset_3_199,BC 2089,S 053,Nearctic,North America,Canada,Howes,40.48622,-74.45182,0,0,25.7279,0,0,0,0,0,298.416,765,0,8945.89
Dataset_3_200,BC 2092,S 053,Nearctic,North America,Canada,Kitt's,40.48622,-74.45182,0,0,10.8995,0,0,0,0,0,298.416,765,0,8945.89
Dataset_3_201,BC 2094,S 053,Nearctic,North America,Canada,Harbell's,40.48622,-74.45182,0,0,7.65685,0,0,0,0,0,298.416,765,0,8945.89
Dataset_3_202,BC 2097,S 053,Nearctic,North America,Canada,Dalling's,40.48622,-74.45182,0,0,39.8701,0,0,0,0,0,298.416,765,0,8945.89
Dataset_3_203,BC 2100,S 053,Nearctic,North America,Canada,Markhamville mine,40.48622,-74.45182,0,0,21.7279,0,0,0,0,0,298.416,765,0,8945.89
Dataset_3_204,BC 2115,S 054,Nearctic,North America,United States,Hamilton,46.24714,-114.15482,0,0,17.9706,3,0,-6,0,0,497.359,421,0,998.67
Dataset_3_205,BC 2120,S 054,Nearctic,North America,United States,Ophir Cave,45.41521,-111.23162,26,44088.5,20.8995,0,0,0,17727.9,0,298.416,35,0,0.6449
Dataset_3_206,BC 2146,S 054,Nearctic,North America,United States,C M and M Mine,46.43724,-108.56106,0,39138.9,20.4853,0,0,0,1000,0,0,89,0,69.6702
Dataset_3_207,BC 2152,S 055,Nearctic,North America,United States,Ravallie County,46.01746,-114.18174,0,0,16.9706,3,8,-12,1000,0,99.4718,80,0,748.404
Dataset_3_208,BC 2153,S 055,Nearctic,North America,United States,Woodside,46.31326,-114.1551,0,0,17.9706,3,0,-4,3000,0,348.151,507,0,43.1562
Dataset_3_209,BC 2154,S 055,Nearctic,North America,United States,Hamilton,46.24714,-114.15482,0,0,17.9706,3,0,-6,0,0,497.359,421,0,998.67
Dataset_3_210,BC 2159,S 055,Nearctic,North America,United States,Ophir Cave,45.41521,-111.23162,26,44088.5,20.8995,0,0,0,17727.9,0,298.416,35,0,0.6449
Dataset_3_211,BC 2185,S 055,Nearctic,North America,United States,C M and M Mine,46.43724,-108.56106,0,39138.9,21.3137,0,0,0,1000,0,0,89,0,69.6702
Dataset_3_212,BC 2198,S 057,Neotropical,South America,Brazil,Corrego Seco,-24.55,-48.68333,0,55794.3,3.82843,0,0,0,9828.43,0,149.208,51,0,0.62074
Dataset_3_213,BC 2236,S 060,Neotropical,South America,Brazil,Portland Cave,17.75336,-77.15789,0,0,5.82843,0,0,0,0,0,49.7359,48,0,210.908
Dataset_3_214,BC 2239,S 060,Neotropical,South America,Brazil,Two Sisters Cave,17.9,-76.9,0,0,5.82843,0,0,0,0,0,149.208,684,0,459.295
Dataset_3_215,BC 2241,S 060,Neotropical,South America,Brazil,Ratbat Hole,17.88667,-76.49,0,61230,10.4853,-1,-33,38,2828.43,0,248.68,56,0,130.398
Dataset_3_216,BC 2246,S 061,Neotropical,South America,Brazil,Caverna dos revolucionarios,-14.29108,-46.25303,0,0,-9999,0,0,0,20071.1,0,0,81,0,2.46571
Dataset_3_217,BC 2269,S 061,Neotropical,South America,Brazil,Caverna Fundi de Quintal #1,-14.48781,-46.11886,0,0,-9999,0,0,-7,1414.21,0,0,620,0,435.829
Dataset_3_218,BC 2270,S 061,Neotropical,South America,Brazil,Caverna Fundi de Quintal #2,-14.48781,-46.11886,0,0,-9999,0,0,-7,1414.21,0,0,620,0,435.829
Dataset_3_219,BC 2271,S 061,Neotropical,South America,Brazil,Caverna Fundi de Quintal #3,-14.48781,-46.11886,0,0,-9999,0,0,-7,1414.21,0,0,620,0,435.829
Dataset_3_220,BC 2272,S 061,Neotropical,South America,Brazil,Caverna Fundi de Quintal #4,-14.48781,-46.11886,0,0,-9999,0,0,-7,1414.21,0,0,620,0,435.829
Dataset_3_221,BC 2275,S 062,Neotropical,South America,Dominican Republic,Cueva la Barca,21.84639,-84.94306,0,0,21.2426,0,0,0,47213.2,0,0,22,0,21.6337
Dataset_3_222,BC 2287,S 062,Neotropical,South America,Dominican Republic,Cueva del Calabazar,21.91861,-84.34972,0,50932,21.5563,0,-12,12,10899.5,1000,0,41,0,21.6338
Dataset_3_223,BC 2289,S 062,Neotropical,South America,Dominican Republic,Cueva de los Majaes,22.67056,-83.56806,0,0,21.5563,0,0,0,9414.21,0,0,48,0,44.7913
Dataset_3_224,BC 2295,S 062,Neotropical,South America,Dominican Republic,Cueva Honda de Julian,19.13333,-70.1,0,0,10.4142,0,0,0,3000,2000,99.4718,52,31312,63.7244
Dataset_3_225,BC 2326,S 065,Neotropical,South America,Brazil,Gruta dos tres lagos BRL 1,-5.59329,-37.68716,0,0,-9999,0,0,0,1000,0,0,92,0,387.429
Dataset_3_226,BC 2363,S 065,Neotropical,South America,Brazil,Caverna do Lajedo Grande A BRL 1,-5.46228,-37.55247,0,0,-9999,0,0,0,2000,0,0,100,0,8.35716
Dataset_3_227,BC 2367,S 065,Neotropical,South America,Brazil,Caverna Porco do Mato BRL 1,-5.04664,-37.54011,0,0,-9999,0,0,0,3828.43,0,0,78,0,4.98467
Dataset_3_228,BC 2407,S 070,Neotropical,South America,Brazil,Gruta A,-19.18833,-52.78306,0,0,9.82843,2,5,-8,17071.1,0,0,73,0,0.59272
Dataset_3_229,BC 2444,S 071,Neotropical,South America,Brazil,Gruta dos Revolucion·rios,-14.29111,-46.25882,0,0,-9999,0,0,0,19656.9,0,0,91,0,2.46571
Dataset_3_230,BC 2449,S 071,Neotropical,South America,Brazil,Caverna Asa Branca,-14.29525,-46.25657,0,0,-9999,0,0,0,19414.2,0,0,87,0,2.46571
Dataset_3_231,BC 2465,S 071,Neotropical,South America,Brazil,Gruna da Judite,-14.40695,-46.19531,0,0,-9999,0,8,-8,7828.43,0,0,84,0,2.98254
Dataset_3_232,BC 2505,S 071,Neotropical,South America,Brazil,Gruna Me‚ndrica,-14.40311,-46.18706,0,0,-9999,0,8,-8,7828.43,0,0,78,0,2.22753
Dataset_3_233,BC 2515,S 071,Neotropical,South America,Brazil,Caverna Ventura,-14.47275,-46.1198,0,0,-9999,0,0,-7,2414.21,0,0,96,0,2.64073
Dataset_3_234,BC 2523,S 071,Neotropical,South America,Brazil,Gruta Bor·,-14.51779,-46.10648,0,0,-9999,0,0,0,2000,0,0,90,0,5.6746
Dataset_3_235,BC 2542,S 073,Neotropical,South America,Brazil,Caverna ParaÌso,-19.05,-52.96667,0,0,88,0,6,-7,1000,0,0,89,0,0.98346
Dataset_3_236,BC 2610,S 080,Neotropical,South America,Brazil,Fenda do Barreiro,-15.85,-48.18333,0,0,-9999,7,0,0,0,0,0,607,0,21.6458
Dataset_3_237,BC 2639,S 080,Neotropical,South America,Brazil,Toca da Gameleira,-15.48333,-48.05,0,0,6.10897,-1,0,0,9828.43,0,0,76,0,0.81103
Dataset_3_238,BC 2672,S 081,Neotropical,South America,Brazil,Gruta C,-15.85,-48.18333,0,0,6.89164,7,0,0,0,0,0,607,0,21.6458
Dataset_3_239,BC 2673,S 082,Neotropical,South America,Brazil,Gruta calc·rea,-15.85,-48.18333,0,0,6.89164,7,0,0,0,0,0,607,0,21.6458
Dataset_3_240,BC 2685,S 084,Neotropical,South America,Brazil,Caverna C,-10.66667,-37.41667,0,0,-9999,0,0,0,0,0,0,726,0,535.245
Dataset_3_241,BC 2695,S 085,Neotropical,South America,Brazil,Caverna Casa de Pedra,-10.66667,-37.41667,0,0,-9999,0,0,0,0,0,0,726,0,535.245
Dataset_3_242,BC 2697,S 086,Neotropical,South America,Brazil,Caverna Pedra Suspensa,-15.39278,-39.74056,0,0,-9999,0,-30,30,9071.07,0,0,50,0,9.18052
Dataset_3_243,BC 2699,S 087,Neotropical,South America,Brazil,Fenda de Pedra,-15.39278,-39.73333,0,0,-9999,0,-30,30,8656.85,0,0,52,0,11.2542
Dataset_3_244,BC 2710,S 088,Neotropical,South America,Brazil,Cavernas do Vale do Rio Pardo,-15.56306,-39.3025,0,0,-9999,0,0,0,9485.28,0,0,401,0,1374.06
Dataset_3_245,BC 2734,S 089,Neotropical,South America,Brazil,Grota e Caverna das Andorinhas,-29.3,-49.73333,0,0,27.0416,0,0,0,0,0,0,500,0,36.736
Dataset_3_246,BC 2735,S 089,Neotropical,South America,Brazil,Grota,-29.3,-49.73333,0,0,23.6274,0,0,0,0,0,0,500,0,36.736
Dataset_3_247,BC 2748,S 090,Neotropical,South America,Brazil,Gruta dos Morcegos,-29.3,-49.73333,0,0,4,0,0,0,0,0,0,500,0,36.736
Dataset_3_248,BC 2750,S 091,Neotropical,South America,Brazil,Toca da Boa Vista,-29.3,-49.73333,0,0,27.0416,0,0,0,0,0,0,500,0,36.736
Dataset_3_249,BC 2769,S 091,Neotropical,South America,Brazil,Gruta dos Brej?es,-29.3,-49.73333,0,0,5.41421,0,0,0,0,0,0,500,0,36.736
Dataset_3_250,BC 2778,S 091,Neotropical,South America,Brazil,Toca dos Ossos,-29.3,-49.73333,0,0,9.24264,0,0,0,0,0,0,500,0,36.736
Dataset_3_251,BC 2779,S 091,Neotropical,South America,Brazil,Toca da Barriguda,-29.3,-49.73333,0,0,6.65685,0,0,0,0,0,0,500,0,36.736
Dataset_3_252,BC 2788,S 091,Neotropical,South America,Brazil,Gruta do T?nel,-29.3,-49.73333,0,0,7.82843,0,0,0,0,0,0,500,0,36.736
Dataset_3_253,BC 2821,S 093,Neotropical,South America,Brazil,Furna do Gato,-8.62306,-37.15583,0,0,-9999,0,0,0,0,0,0,765,0,4865.88
Dataset_3_254,BC 2841,S 095,Neotropical,South America,Brazil,Gruta Ubajara,-3.8,-40.86667,0,0,-9999,0,0,0,0,0,0,82,0,16.7773
Dataset_3_255,BC 2848,S 095,Neotropical,South America,Brazil,Gruta Araticum,-3.8,-40.86667,0,0,-9999,0,0,0,0,0,0,82,0,16.7773
Dataset_3_256,BC 2860,S 097,Neotropical,South America,Brazil,"Gruta do ""Ti„o""",-3.8,-40.86667,0,0,-9999,0,0,0,0,0,0,82,0,16.7773
Dataset_3_257,BC 2861,S 097,Neotropical,South America,Brazil,Gruta do Morcego Branco,-3.8,-40.86667,0,0,-9999,0,0,0,0,0,0,82,0,16.7773
Dataset_3_258,BC 2921,S 106,Neotropical,South America,Brazil,Gruta Lavrinhas 2,-22.56667,-44.91667,0,0,-9999,0,0,0,0,0,0,448,0,209.286
Dataset_3_259,BC 2932,S 110,Neotropical,South America,Brazil,Caverna em fazenda prÛxima ‡ EstaÁ„o Experimental de Itirapina,-22.25,-47.81667,0,0,5.52635,0,-8,9,0,0,0,765,0,576.283
Dataset_3_260,BC 2977,S 113,Neotropical,South America,Brazil,CÛrrego Seco B,-24.55,-48.68333,0,55794.3,3.41421,0,0,0,9828.43,0,149.208,51,0,0.62074
Dataset_3_261,BC 2994,S 114,Neotropical,South America,Brazil,Gruta Calc·rio Branco,-24.53333,-48.78333,0,62820.8,8.41421,0,0,0,3000,0,0,43,0,1.62915
Dataset_3_262,BC 3044,S 116,Neotropical,South America,Brazil,Gruta do Grilo,-24.53333,-48.71667,29,40467.9,5.24264,0,0,0,7000,0,149.208,37,0,0.60413
Dataset_3_263,BC 3061,S 116,Neotropical,South America,Brazil,Macaquinhos 1,-24.55,-48.7,0,43490.3,18.3137,0,0,0,8828.43,0,149.208,36,0,0.62074
Dataset_3_264,BC 3062,S 116,Neotropical,South America,Brazil,Macaquinhos 2,-24.55,-48.7,0,43490.3,18.3137,0,0,0,8828.43,0,149.208,36,0,0.62074
Dataset_3_265,BC 3065,S 116,Neotropical,South America,Brazil,Mina I,-24.55,-48.7,0,43490.3,18.3137,0,0,0,8828.43,0,149.208,36,0,0.62074
Dataset_3_266,BC 3066,S 116,Neotropical,South America,Brazil,Mina II,-24.55,-48.7,0,43490.3,18.3137,0,0,0,8828.43,0,149.208,36,0,0.62074
Dataset_3_267,BC 3073,S 116,Neotropical,South America,Brazil,Caverna Ouro Grosso,-24.55,-48.68333,0,55794.3,18.4853,0,0,0,9828.43,0,149.208,51,0,0.62074
Dataset_3_268,BC 3076,S 116,Neotropical,South America,Brazil,Sumidouro do David,-24.55,-48.68333,0,55794.3,18.4853,0,0,0,9828.43,0,149.208,51,0,0.62074
Dataset_3_269,BC 3124,S 120,Neotropical,South America,Brazil,Furna na BR 101 Km; Km 13/14,-29.3,-49.73333,0,0,43.8995,0,0,0,0,0,0,500,0,36.736
Dataset_3_270,BC 3125,S 120,Neotropical,South America,Brazil,Furna na BR 101 Km; Km 13/15,-29.3,-49.73333,0,0,43.8995,0,0,0,0,0,0,500,0,36.736
Dataset_3_271,BC 3131,S 122,Neotropical,South America,Brazil,Gruta da Lancinha,-25.31667,-49.28333,0,0,79.2254,-3,-8,11,0,0,0,553,0,3920.16
Dataset_3_272,BC 3151,S 124,Neotropical,South America,Brazil,Toca da Gruta,-25.17722,-49.30444,0,35742.8,51.799,0,-10,10,0,1000,149.208,614,0,738.898
Dataset_3_273,BC 3164,S 125,Palearctic,Asia,China,Meng Gong cave,23.96194,99.23178,0,0,12.4926,-5,0,6,6828.43,0,0,69,0,149.621
Dataset_3_274,BC 3171,S 125,Palearctic,Asia,China,Bamboo river cave,22.72672,99.80392,0,0,12.46,0,-14,16,4414.21,0,149.208,41,0,82.5662
Dataset_3_275,BC 3185,S 125,Indomalayan,Asia,China,"Corn 1 cave, Meng Yuan",21.80906,101.38006,0,0,12.1169,0,0,0,3828.43,0,0,58,0,57.801
Dataset_3_276,BC 3186,S 125,Indomalayan,Asia,China,Corn 2 and Corn 3 caves,21.80853,101.38058,0,0,12.1235,0,0,0,3828.43,0,0,58,0,57.801
Dataset_3_277,BC 3187,S 125,Indomalayan,Asia,China,"Buffalo cave, Baojiao buffalo cave",21.71306,101.38217,0,42304,12.1235,0,-17,17,3000,0,0,47,0,18.271
Dataset_3_278,BC 3246,S 125,Indomalayan,Asia,China,"Roof cave, Wei Mo Xiang",23.67447,104.41003,0,0,7.73835,-12,7,4,2414.21,0,0,85,0,129.49
Dataset_3_279,BC 3247,S 125,Indomalayan,Asia,China,Chili cave,23.67464,104.41019,0,0,7.73835,-12,7,4,2414.21,0,0,85,0,129.49
Dataset_3_280,BC 3253,S 125,Indomalayan,Asia,China,Building cave,23.51169,104.43097,0,0,7.11928,-8,-9,16,8485.28,0,0,44,0,79.714
Dataset_3_281,BC 3254,S 125,Indomalayan,Asia,China,Ping Zi Tian cave (Mengpengzhen),24.20967,0,0,0,27.4142,0,0,0,0,20142.1,0,896,0,0.26593
Dataset_3_282,BC 3259,S 126,Indomalayan,Asia,Vietnam,Da Hao cave,20.83779,106.9838,0,46601.9,11.0711,0,0,0,3000,0,0,53,0,158.731
Dataset_3_283,BC 3260,S 126,Indomalayan,Asia,Vietnam,Fossil cave,20.80376,106.9863,0,38041.4,11.0711,0,0,0,4000,0,0,48,0,158.731
Dataset_3_284,BC 3261,S 126,Indomalayan,Asia,Vietnam,Trung Trang cave,20.78879,106.9974,0,49176.6,11.0711,-3,-38,43,3000,0,0,44,0,158.731
Dataset_3_285,BC 3266,S 126,Indomalayan,Asia,Vietnam,Minh Chau cave,20.75368,107.0126,0,0,10.6569,0,0,0,2414.21,0,0,56,0,158.731
Dataset_3_286,BC 3308,S 127,Indomalayan,Asia,Myanmar,Phagu,20.63423,96.55142,0,0,10.4142,0,0,0,0,0,0,182,0,137.984
Dataset_3_287,BC 3332,S 127,Indomalayan,Asia,Myanmar,Montawa cave,20.75465,97.01772,0,0,5.24264,0,0,0,0,0,0,191,0,339.861
Dataset_3_288,BC 3338,S 127,Indomalayan,Asia,Myanmar,Tam cave temple,20.64097,97.06735,0,0,24.4142,-2,0,0,7414.21,0,0,58,0,229.916
Dataset_3_289,BC 3339,S 127,Indomalayan,Asia,Myanmar,Cynopterus cave,20.77872,97.14517,0,0,24.4142,0,0,0,2000,0,0,76,0,218.198
Dataset_3_290,BC 3346,S 128,Indomalayan,Asia,Philippines,Dadatan cave,6.94717,125.68078,0,0,6,0,0,0,0,0,0,49,0,238.65
Dataset_3_291,BC 3347,S 128,Indomalayan,Asia,Philippines,Baong cave,6.95789,125.68078,0,0,6,0,0,0,0,0,0,255,0,238.65
Dataset_3_292,BC 3357,S 128,Indomalayan,Asia,Philippines,"Upper Tambo cave, Samal Island",7.16425,125.703,0,0,6,0,0,0,0,0,0,113,0,559.543
Dataset_3_293,BC 3360,S 128,Indomalayan,Asia,Philippines,Cacao cave,6.97219,125.72369,0,0,6,0,-27,28,9242.64,1000,0,24,0,539.979
Dataset_3_294,BC 3361,S 128,Indomalayan,Asia,Philippines,Malcoma A cave,7.12611,125.72972,0,0,6,0,0,0,1000,0,0,58,0,519.804
Dataset_3_295,BC 3362,S 128,Indomalayan,Asia,Philippines,Quimban cave,6.944,125.73322,0,0,6,-3,-18,20,12656.9,0,0,26,0,156.176
Dataset_3_296,BC 3363,S 128,Indomalayan,Asia,Philippines,Vito cave,7.06622,125.73389,37,0,4.82843,0,-29,30,3000,0,0,50,0,397.31
Dataset_3_297,BC 3364,S 128,Indomalayan,Asia,Philippines,Lim cave,7.12722,125.74144,30,0,3.41421,0,0,0,2000,0,0,52,0,320.344
Dataset_3_298,BC 3366,S 128,Indomalayan,Asia,Philippines,Baybay cave,6.90597,125.74786,0,0,3.41421,-3,-18,20,17656.9,0,0,27,0,271.473
Dataset_3_299,BC 3367,S 128,Indomalayan,Asia,Philippines,Lasang cave,6.96239,125.74872,34,0,6.24264,0,-27,28,10656.9,0,0,42,0,156.176
Dataset_3_300,BC 3368,S 128,Indomalayan,Asia,Philippines,Ipil-ipil cave,6.90633,125.74878,0,0,6.24264,-3,-18,20,17656.9,0,0,27,0,271.473
Dataset_3_301,BC 3369,S 128,Indomalayan,Asia,Philippines,Remoreras cave,6.94928,125.74931,35,0,6.24264,-3,-18,20,12656.9,0,0,51,0,163.062
Dataset_3_302,BC 3373,S 128,Indomalayan,Asia,Philippines,Manan-ao cave,6.98978,125.74964,41,0,10.2426,0,-27,28,7656.85,0,0,46,0,346.878
Dataset_3_303,BC 3375,S 128,Indomalayan,Asia,Philippines,Asquilla cave,6.94692,125.7515,34,0,34.6569,0,0,5,13071.1,1000,0,54,0,195.983
Dataset_3_304,BC 3378,S 128,Indomalayan,Asia,Philippines,Linggasakan cave,6.97133,125.75789,0,0,34.6569,0,20,-17,10071.1,0,0,48,0,156.176
Dataset_3_305,BC 3379,S 128,Indomalayan,Asia,Philippines,Libertad cave,6.92689,125.75833,27,0,12.4142,0,0,5,15071.1,0,0,44,0,271.473
Dataset_3_306,BC 3382,S 128,Indomalayan,Asia,Philippines,Sion bat cave,6.94992,125.76153,29,0,12.4142,0,0,5,13071.1,1000,0,53,0,208.035
Dataset_3_307,BC 3384,S 128,Indomalayan,Asia,Philippines,Tamburong cave,7.01647,125.76303,0,0,12.4142,0,0,0,6242.64,0,0,46,0,220.498
Dataset_3_308,BC 3389,S 128,Indomalayan,Asia,Philippines,Talisay cave,7.06061,125.77919,28,0,13.2426,0,0,0,5000,0,0,35,0,196.45
Dataset_3_309,BC 3391,S 128,Indomalayan,Asia,Philippines,Tinangisan cave,7.11497,125.79631,0,0,5.65685,0,0,0,0,1000,0,33,0,78.9514
Dataset_3_310,BC 3392,S 129 b,Neotropical,South America,Lesser Antilles,Mount Wyne cave,13.21767,-61.27511,0,78566.5,27.2426,0,-20,22,1000,0,0,39,0,155.866
Dataset_3_311,BC 3408,S 132,Indomalayan,Asia,Malaysia,Wind cave,1.41525,110.13515,0,0,11.4853,0,-20,21,1414.21,0,99.4718,48,15904,74.125
Dataset_3_312,BC 3432,S 135,Neotropical,South America,Puerto Rico,Culebrones cave,18.41667,-66.71667,0,0,18.4142,0,-16,18,0,0,1492.08,276,0,413.746
Dataset_3_313,BC 3455,S 138,Neotropical,North America,Mexico,Talpichichi cave,20.23333,-104.43333,0,0,22.8995,-2,0,7,4414.21,0,0,41,0,3.90633
Dataset_3_314,BC 3455,S 138,Neotropical,North America,Mexico,Talpichichi cave,20.23333,-104.43333,0,0,22.8995,-2,0,7,4414.21,0,0,41,0,3.90633
Dataset_3_315,BC 3458,S 138,Neotropical,North America,Mexico,Resuminado toxin cave,19.5,-104,0,0,22.8995,0,0,0,9485.28,0,0,41,0,14.6815
Dataset_3_316,BC 3458,S 138,Neotropical,North America,Mexico,Resuminado toxin cave,19.5,-104,0,0,22.8995,0,0,0,9485.28,0,0,41,0,14.6815
Dataset_3_317,BC 3519,S 138,Neotropical,North America,Mexico,Paso Real cave,20.15,-102.1,0,138862,6.82843,0,0,0,1414.21,0,0,51,12898,13.4097
Dataset_3_318,BC 3519,S 138,Neotropical,North America,Mexico,Paso Real cave,20.15,-102.1,0,138862,6.82843,0,0,0,1414.21,0,0,51,12898,13.4097
Dataset_3_319,BC 3520,S 138,Neotropical,North America,Mexico,Bandoleros cave,20.15,-102.1,0,138862,6.82843,0,0,0,1414.21,0,0,51,12898,13.4097
Dataset_3_320,BC 3520,S 138,Neotropical,North America,Mexico,Bandoleros cave,20.15,-102.1,0,138862,6.82843,0,0,0,1414.21,0,0,51,12898,13.4097
Dataset_3_321,BC 3755,S 143,Palearctic,Asia,Iran,Kerend cave,34.25,46.28333,0,0,32.5563,0,0,0,2414.21,0,0,123,0,18.6486
Dataset_3_322,BC 3778,S 145,Neotropical,South America,Dominican Republic,Cueva No. 4,18.46692,-70.136,0,0,13.4142,0,-16,17,0,0,248.68,305,0,1502.9
Dataset_3_323,BC 3890,S 146,Neotropical,South America,Costa Rica,Tortuga,9.0798,-83.67053,0,0,7.07107,0,0,0,5828.43,0,49.7359,44,0,31.486
Dataset_3_324,BC 3907,S 147,Neotropical,South America,Brazil,Caverna do Arapua,0,0,0,0,-9999,0,0,0,0,0,0,2328,0,0
Dataset_3_325,BC 3909,S 147,Neotropical,South America,Brazil,Caverna Porco do Mato 1,0,0,0,0,-9999,0,0,0,0,0,0,2328,0,0
Dataset_3_326,BC 3915,S 147,Neotropical,South America,Brazil,Gruta Copoeira Joao Carlos,0,0,0,0,-9999,0,0,0,0,0,0,2328,0,0
Dataset_3_327,BC 3922,S 147,Neotropical,South America,Brazil,Gruta Casa de Homens,0,0,0,0,-9999,0,0,0,0,0,0,2328,0,0
Dataset_3_328,BC 3927,S 147,Neotropical,South America,Brazil,Furna do Urubu,0,0,0,0,-9999,0,0,0,0,0,0,2328,0,0
Dataset_3_329,BC 3932,S 147,Neotropical,South America,Brazil,Gruta da Carrapateira,0,0,0,0,-9999,0,0,0,0,0,0,2328,0,0
Dataset_3_330,BC 3939,S 147,Neotropical,South America,Brazil,Gruta dos Trinta,0,0,0,0,-9999,0,0,0,0,0,0,2328,0,0
Dataset_3_331,BC 3943,S 147,Neotropical,South America,Brazil,Caverna de Pedra Lisa,0,0,0,0,-9999,0,0,0,0,0,0,2328,0,0
Dataset_3_332,BC 3947,S 147,Neotropical,South America,Brazil,Caverna do Lajedo Grande,0,0,0,0,-9999,0,0,0,0,0,0,2328,0,0
Dataset_3_333,BC 3950,S 147,Neotropical,South America,Brazil,Furna Feia C,0,0,0,0,-9999,0,0,0,0,0,0,2328,0,0
Dataset_3_334,BC 3960,S 147,Neotropical,South America,Brazil,Furna Nova B,0,0,0,0,-9999,0,0,0,0,0,0,2328,0,0
Dataset_3_335,BC 3967,S 147,Neotropical,South America,Brazil,Gruta do Tres Lagos,0,0,0,0,-9999,0,0,0,0,0,0,2328,0,0
Dataset_3_336,BC 3974,S 147,Neotropical,South America,Brazil,Caverna Boa,0,0,0,0,-9999,0,0,0,0,0,0,2328,0,0
Dataset_3_337,BC 3991,S 149,Indomalayan,Asia,China,Nam Van Lake,22.18558,113.5431,0,0,12.2426,0,0,0,0,0,0,765,0,28055.3
Dataset_3_338,BC 3992,S 149,Indomalayan,Asia,China,LuÌs de Cam_es Garden,22.20237,113.5451,0,0,12.2426,0,0,0,0,0,0,765,0,125443
Dataset_3_339,BC 3993,S 149,Indomalayan,Asia,China,Dr.Sun Yat-Sen Municipal Park,22.19985,113.54888,0,0,12.2426,0,0,0,0,0,0,765,0,65641.6
Dataset_3_340,BC 3994,S 149,Indomalayan,Asia,China,Montanha Russa Park,22.20424,113.55259,0,0,12.2426,0,0,0,0,0,0,765,0,72754.3
Dataset_3_341,BC 3995,S 149,Indomalayan,Asia,China,Guia Hill Municipal Park,22.19886,113.55267,0,0,12.2426,0,0,0,0,0,0,765,0,27782.7
Dataset_3_342,BC 3996,S 149,Indomalayan,Asia,China,Taipa Houses-Museum,22.15455,113.56017,0,0,15.3137,0,0,0,0,0,0,765,0,9107.25
Dataset_3_343,BC 3999,S 149,Indomalayan,Asia,China,Estrada de Cheoc Van Bat Cave,22.11324,113.56155,0,0,15.3137,0,0,0,0,0,0,765,0,687.469
Dataset_3_344,BC 4002,S 149,Indomalayan,Asia,China,Seac Pai Van Park,22.13021,113.56454,0,0,15.3137,0,0,0,0,0,0,765,0,687.469
Dataset_3_345,BC 4003,S 149,Indomalayan,Asia,China,Oscar Farm,22.12769,113.57188,0,0,15.3137,0,0,0,0,0,0,765,0,687.469
Dataset_3_346,BC 4004,S 149,Palearctic,Asia,China,Estrada Militar Bat Cave,22.12743,113.57207,0,0,15.3137,0,0,0,0,0,0,765,0,687.469
Dataset_3_347,BC 4006,S 149,Indomalayan,Asia,China,Hec S· Reservoir,22.13339,113.57636,0,0,15.3137,0,0,0,0,0,0,765,0,687.469
Dataset_3_348,BC 4008,S 149,Palearctic,Asia,China,K· HÛ Bat Cave,22.12814,113.58584,0,0,7.82843,0,0,0,0,0,0,503,0,687.469
Dataset_3_349,BC 4013,S 150,Indomalayan,Asia,China,Jiulongdong CH 2,33.84275,110.88714,0,0,12.6485,0,-24,26,9899.5,0,0,52,0,69.5085
Dataset_3_350,BC 4022,S 150,Indomalayan,Asia,China,Miping CH 2,33.60897,111.31723,0,0,9.2563,-4,-24,28,22213.2,0,0,44,0,52.2203
Dataset_3_351,BC 4039,S 150,Indomalayan,Asia,China,Yunhua A CH 2,33.33058,111.47606,0,0,7.07107,-4,0,2,0,0,0,362,0,1040.45
Dataset_3_352,BC 4049,S 150,Indomalayan,Asia,China,Gukuang CH 2,33.82312,111.49391,0,0,7.07107,-3,-18,22,5414.21,0,0,48,0,208.196
Dataset_3_353,BC 4064,S 150,Indomalayan,Asia,China,Huanglongdong CH 2,33.46621,111.69557,0,0,20.799,0,-15,17,17556.3,0,0,43,0,40.2373
Dataset_3_354,BC 4068,S 150,Indomalayan,Asia,China,Banchang CH 2,33.40196,111.71163,0,0,32.2426,-2,-32,35,13313.7,0,0,48,0,49.7077
Dataset_3_355,BC 4069,S 150,Indomalayan,Asia,China,Miaozi CH 2,33.73033,111.71698,0,0,32.2426,0,0,0,3828.43,0,0,60,0,112.291
Dataset_3_356,BC 4072,S 150,Indomalayan,Asia,China,Qiliping CH 2,33.32701,111.8544,0,0,18.2426,-5,-22,27,18000,0,0,64,0,40.3486
Dataset_3_357,BC 4082,S 150,Indomalayan,Asia,China,Xianrendong CH 2,33.5715,112.0971,0,0,11.2426,-1,-16,18,20899.5,0,0,54,0,51.4305
Dataset_3_358,BC 4098,S 150,Palearctic,Asia,China,Manghe CH 2,35.12409,112.50577,0,0,36.8701,13,0,-14,0,0,0,369,0,296.482
Dataset_3_359,BC 4100,S 150,Palearctic,Asia,China,Kongqiushan CH 2,35.26329,113.19641,0,0,27,0,0,0,0,0,49.7359,525,0,719.847
Dataset_3_360,BC 4114,S 150,Palearctic,Asia,China,Nantai CH 2,35.78261,113.69253,0,0,2.41421,0,0,0,22242.6,0,0,55,0,276.668
Dataset_3_361,BC 4152,S 150,Palearctic,Asia,China,Wuchenhe CH 2,31.84655,114.9075,0,0,2.82843,-11,7,2,12414.2,0,0,73,42123,390.267
Dataset_3_362,BC 4162,S 150,Palearctic,Asia,China,Wulongdong CH 2,32.08771,115.53773,0,0,14.0711,0,0,0,7071.07,1000,0,75,0,189.292
Dataset_3_363,BC 4166,S 150,Palearctic,Asia,China,Jingangtai CH 2,31.89663,115.6122,0,0,14.0711,0,0,0,1000,0,0,291,0,209.56
Dataset_3_364,BC 4168,S 151,Indomalayan,Asia,China,Taibaidingtaohuadong,32.3657,113.36908,0,0,8.65685,0,0,0,0,0,99.4718,125,0,231.468
Dataset_3_365,BC 4171,S 151,Palearctic,Asia,China,Zhuzhuangjinkuandong,32.51421,113.4707,0,0,12.2426,-3,-17,19,11071.1,0,49.7359,57,0,82.5678
Dataset_3_366,BC 4182,S 153,Indomalayan,Asia,China,Jingdong,24.44694,100.83349,0,0,12.1169,0,10,0,0,0,0,432,15309,179.864
Dataset_3_367,BC 4184,S 153,Palearctic,Asia,China,Huahongdong,25.05773,102.6121,0,0,162,21,-14,-7,0,0,49.7359,556,0,1974.77
Dataset_3_368,BC 4191,S 153,Indomalayan,Asia,China,Kunming,25.05773,102.6121,0,0,162,21,-14,-7,0,0,49.7359,556,0,1974.77
Dataset_3_369,BC 4196,S 153,Indomalayan,Asia,China,Rongjiang,25.9319,108.521,0,0,2,0,-8,9,0,0,0,546,0,242.215
Dataset_3_370,BC 4197,S 153,Indomalayan,Asia,China,Unknown,27.6996,108.839,0,0,5.24264,-2,0,0,0,0,0,765,18820,234.176
Dataset_3_371,BC 4245,S 157,Palearctic,Asia,China,Shitai,30.18194,117.51595,31,36525.6,14,0,-12,12,0,1000,0,81,0,59.4969
Dataset_3_372,BC 4275,S 157,Palearctic,Asia,China,Taiping,30.29398,118.13667,0,0,4.82843,0,0,0,1414.21,0,0,409,0,603.282
Dataset_3_373,BC 4289,S 157,Palearctic,Asia,China,Huhu,31.18696,118.25684,0,0,6.41421,3,0,-5,0,0,0,199,0,365.013
Dataset_3_374,BC 4297,S 157,Palearctic,Asia,China,Jingxian,30.68865,118.41961,0,0,6.41421,-2,-5,8,0,0,0,765,0,740.882
Dataset_3_375,BC 4391,S 158,Palearctic,Asia,China,Yaojie,35.501,113.558,0,0,12.2426,0,0,0,5242.64,0,149.208,76,0,257.463
Dataset_3_376,BC 4394,S 158,Palearctic,Asia,China,Shibanyan,36.126,113.709,0,0,2.41421,0,0,0,3414.21,0,0,52,0,42.2371
Dataset_3_377,BC 4397,S 158,Palearctic,Asia,China,linzhou,36.091,113.73,0,0,7,0,0,0,2000,1000,0,52,0,1000.18
Dataset_3_378,BC 4401,S 158,Palearctic,Asia,China,Laohu,37.159,113.82,0,0,22.2426,-4,-10,14,4828.43,1000,0,45,0,56.5636
Dataset_3_379,BC 4425,S 159,Indomalayan,Asia,China,Wulong,29.32173,107.72781,0,0,13.0711,0,0,0,1000,0,0,267,0,454.891
Dataset_3_380,BC 4447,S 159,Indomalayan,Asia,China,Shiqian,27.50827,108.20435,0,0,4.24264,-2,0,0,0,0,0,95,0,693.467
Dataset_3_381,BC 4473,S 159,Indomalayan,Asia,China,Fangjingshan,27.91359,108.6941,32,121918,4.24264,0,0,0,12899.5,0,0,43,0,35.2966
Dataset_3_382,BC 4507,S 159,Indomalayan,Asia,China,Xianfeng,29.67135,109.13544,0,0,4,-1,-16,17,0,0,0,452,0,310.768
Dataset_3_383,BC 4551,S 159,Indomalayan,Asia,China,Huayuan,28.57211,109.48224,0,0,6.82843,0,-6,6,0,0,49.7359,228,0,945.143
Dataset_3_384,BC 4588,S 159,Indomalayan,Asia,China,Tongdao,26.15796,109.78505,0,38671.4,250.113,0,0,0,0,0,0,683,0,436.043
Dataset_3_385,BC 4613,S 159,Indomalayan,Asia,China,Huaihua,27.56992,110.00219,0,0,42.598,0,0,1,0,0,0,695,0,243.593
Dataset_3_386,BC 4615,S 159,Indomalayan,Asia,China,Hefeng,29.89543,110.04318,0,0,14.4142,-3,-20,24,1414.21,0,49.7359,65,0,7.91845
Dataset_3_387,BC 4644,S 159,Indomalayan,Asia,China,Zigui,30.81204,110.91728,0,37323.7,12.6485,0,0,0,2000,0,0,49,0,1117.39
Dataset_3_388,BC 4649,S 159,Indomalayan,Asia,China,Zhangyang,30.47266,111.20718,0,0,12.2473,0,-17,17,1000,0,0,68,0,273.754
Dataset_3_389,BC 4651,S 159,Indomalayan,Asia,China,Changyang,30.47266,111.20718,0,0,12.2473,0,-17,17,1000,0,0,68,0,273.754
Dataset_3_390,BC 4656,S 159,Indomalayan,Asia,China,Yicang,30.70052,111.3176,0,0,8.53279,1,0,0,0,0,0,765,0,549.484
Dataset_3_391,BC 4661,S 159,Indomalayan,Asia,China,Xinhua,27.73945,111.32378,0,0,7.79624,0,0,6,0,0,0,539,0,2700.51
Dataset_3_392,BC 4674,S 160,Indomalayan,Asia,China,Xianren cave,33.85088,110.88537,0,0,12.6485,-2,-31,33,10899.5,0,0,50,0,73.2238
Dataset_3_393,BC 4687,S 160,Indomalayan,Asia,China,Miaozi,33.79377,111.73483,0,0,32.2426,-3,-24,29,1000,0,0,56,0,112.291
Dataset_3_394,BC 4734,S 161,Indomalayan,Asia,China,Banchang,33.41722,111.7045,29,39269.2,32.2426,-2,-32,35,14142.1,0,0,42,0,49.7077
Dataset_3_395,BC 4751,S 162,Indomalayan,Asia,China,Tengchong,25.01454,98.53102,0,0,12.502,-4,-18,23,0,0,0,112,0,357.151
Dataset_3_396,BC 4786,S 164,Indomalayan,Asia,China,Zhuxi,21.38681,110.21995,0,0,13.0711,0,0,0,0,0,0,448,0,890.241
Dataset_3_397,BC 4791,S 164,Indomalayan,Asia,China,Nanlin,24.76056,112.86387,26,42947.3,36.8701,0,0,0,19828.4,0,0,40,0,21.619
Dataset_3_398,BC 4793,S 164,Indomalayan,Asia,China,Nanzhuang,22.98229,113.01068,0,0,11.2426,31,-26,-3,0,0,0,765,0,2373.06
Dataset_3_399,BC 4795,S 164,Indomalayan,Asia,China,Foshan,23.0808,113.076,0,0,31,22,-14,-6,0,0,0,672,0,2488.96
Dataset_3_400,BC 4797,S 164,Indomalayan,Asia,China,Huadu,23.4055,113.22,0,0,27,30,-27,-1,0,0,0,765,0,23934.1
Dataset_3_401,BC 4799,S 164,Indomalayan,Asia,China,Huadong,23.4373,113.32615,0,0,10.2426,9,-9,0,0,0,0,583,0,819.478
Dataset_3_402,BC 4803,S 164,Indomalayan,Asia,China,Baixi,22.39328,113.33736,0,0,8.65685,0,0,0,0,0,0,765,0,1025.24
Dataset_3_403,BC 4804,S 164,Indomalayan,Asia,China,Biluodong,24.11464,113.36139,0,0,8.65685,0,-13,14,1000,0,0,96,0,995.836
Dataset_3_404,BC 4805,S 164,Indomalayan,Asia,China,Baojinggong,24.12799,113.36476,0,0,8.65685,0,-13,14,0,0,0,102,0,995.836
Dataset_3_405,BC 4812,S 164,Indomalayan,Asia,China,Chonghua,23.61178,113.55176,0,0,12.2426,0,0,6,0,0,0,245,0,363.351
Dataset_3_406,BC 4829,S 164,Indomalayan,Asia,China,Zhengguo,23.41697,113.89333,0,0,23.1421,-4,-18,23,1414.21,0,0,537,0,237.71
Dataset_3_407,BC 4830,S 164,Palearctic,Asia,China,Lvtian,23.81268,113.95336,0,0,10.8995,0,0,0,1000,0,0,272,0,65.2741
Dataset_3_408,BC 4843,S 164,Indomalayan,Asia,China,Lianghua,23.11,114.67626,0,0,2.82843,-5,-15,18,0,0,0,435,0,255.034
Dataset_3_409,BC 4844,S 164,Indomalayan,Asia,China,Pingyuan,24.55138,115.88334,0,0,14.0711,-5,0,9,0,0,0,230,0,972.85
Dataset_3_410,BC 4864,S 167,Indomalayan,Asia,China,Bijie,27.2837,105.29174,0,0,6.89736,-5,0,0,0,0,0,765,0,419.858
Dataset_3_411,BC 4869,S 167,Indomalayan,Asia,China,Renhuai,27.79252,106.40109,0,0,51.4558,0,-13,14,0,0,0,765,0,1259.65
Dataset_3_412,BC 4871,S 167,Indomalayan,Asia,China,Huishui,26.13296,106.65641,0,0,51.4558,0,-7,12,0,0,0,765,0,501.166
Dataset_3_413,BC 4873,S 167,Indomalayan,Asia,China,Suiyang,27.94636,107.19106,0,0,14.4142,0,-15,15,0,0,0,475,0,838.314
Dataset_3_414,BC 4885,S 167,Palearctic,Asia,China,Wuchuang,28.56302,107.89879,0,0,4.24264,0,0,0,0,0,0,765,0,162.628
Dataset_3_415,BC 4897,S 167,Indomalayan,Asia,China,Leishan,26.37868,108.07736,0,0,4.24264,0,-24,25,0,0,0,483,0,270.335
Dataset_3_416,BC 4905,S 168,Indomalayan,Asia,China,Chuangdong,27.78135,108.56655,0,38574,2,-2,-26,29,4000,0,0,44,0,42.2991
Dataset_3_417,BC 4908,S 168,Indomalayan,Asia,China,Baishuidong,27.77707,108.5734,0,38574,2,-2,-26,29,4000,0,0,52,0,42.2991
Dataset_3_418,BC 4909,S 168,Indomalayan,Asia,China,Taojindong,27.85245,108.58768,26,46108.1,2,0,-19,21,3414.21,0,0,44,0,42.2991
Dataset_3_419,BC 4929,S 168,Indomalayan,Asia,China,Xianrendong,27.76146,108.79888,0,0,4.24264,0,-8,9,3414.21,0,0,57,0,35.2966
Dataset_3_420,BC 4945,S 168,Palearctic,Asia,China,Yandongshang,27.36561,109.24397,0,36884.8,5.41421,-3,-17,22,3000,0,0,55,0,183.158
Dataset_3_421,BC 5038,S 170,Indomalayan,Asia,China,CH 1 Xinhua,27.77845,111.31358,0,0,9.2563,-5,0,7,0,0,0,113,0,910.985
Dataset_3_422,BC 5042,S 170,Indomalayan,Asia,China,CH 1 Shimeng A,29.628,111.31769,0,0,7.83524,-5,-12,16,3828.43,0,0,56,0,230.775
Dataset_3_423,BC 5050,S 170,Palearctic,Asia,China,CH 1 Jiangyong,25.27436,111.34346,0,0,7.51032,0,-8,9,0,0,0,560,0,401.924
Dataset_3_424,BC 5054,S 170,Palearctic,Asia,China,CH 1 Taoyuan B,28.90245,111.48916,0,0,7.07107,0,0,4,0,0,49.7359,138,0,1503.25
Dataset_3_425,BC 5055,S 170,Indomalayan,Asia,China,CH 1 Daoxian,25.5262,111.601,0,0,22.8284,-11,9,3,0,0,49.7359,323,0,714.83
Dataset_3_426,BC 5056,S 170,Indomalayan,Asia,China,CH 1 Yongzhou,26.41953,111.61355,0,0,22.8284,-7,0,1,0,0,0,765,0,1224.94
Dataset_3_427,BC 5064,S 170,Indomalayan,Asia,China,CH 1 Changsha,28.22826,112.93889,0,0,11.2426,28,-26,-1,0,0,149.208,765,0,45811.9
Dataset_3_428,BC 5068,S 170,Indomalayan,Asia,China,CH 1 Yizhang,25.39991,112.94886,0,0,11.2426,0,0,0,0,0,49.7359,765,17438,706.453
Dataset_3_429,BC 5070,S 170,Indomalayan,Asia,China,CH 1 Hengdong,27.08132,112.95324,0,0,11.2426,0,-8,10,1000,0,0,299,0,882.29
Dataset_3_430,BC 5079,S 170,Palearctic,Asia,China,CH 1 Yueyang,29.35613,113.12876,0,0,27,0,0,0,0,0,49.7359,765,0,6513.51
Dataset_3_431,BC 5082,S 170,Indomalayan,Asia,China,CH 1 Pingjiang,28.702,113.58131,0,0,7.82843,0,0,6,0,0,0,747,0,659.009
Dataset_3_432,BC 5084,S 170,Palearctic,Asia,China,CH 1 Liuyang,28.16357,113.64319,0,0,2.41421,0,-9,7,0,0,49.7359,765,0,1039.57
Dataset_3_433,BC 5085,S 170,Indomalayan,Asia,China,CH 1 Yangling,26.49007,113.77232,0,0,7,-2,0,0,0,0,0,545,0,22.2446
Dataset_3_434,BC 5090,S 171,Indomalayan,Asia,China,Xiaxia CH 3,33.30699,111.47372,0,0,7.07107,-4,0,2,0,0,0,756,0,585.218
Dataset_3_435,BC 5094,S 171,Palearctic,Asia,China,Taoyuan C CH 3,33.78585,111.6157,0,0,20.799,-1,0,0,0,0,49.7359,765,0,1537.69
Dataset_3_436,BC 5101,S 171,Palearctic,Asia,China,Manghe CH 3,35.2075,112.14386,0,0,13.8284,-6,-25,32,17828.4,0,0,50,0,138.299
Dataset_3_437,BC 5102,S 171,Palearctic,Asia,China,Taohuadong CH 3,35.10896,112.54,0,0,36.8701,13,0,-14,0,0,149.208,595,0,296.482
Dataset_3_438,BC 5104,S 171,Palearctic,Asia,China,Huilong CH 3,32.51421,113.4707,0,0,12.2426,-3,-17,19,11071.1,0,49.7359,57,0,82.5678
Dataset_3_439,BC 5109,S 171,Palearctic,Asia,China,Qingshanzheng CH 3,35.71633,113.94422,0,0,26.8701,-12,-13,24,13242.6,0,0,39,0,249.14
Dataset_3_440,BC 5110,S 171,Palearctic,Asia,China,Xuwang CH 3,32.06265,114.29917,0,0,10.6569,-6,0,1,5242.64,0,0,73,0,119.926
Dataset_3_441,BC 5113,S 171,Palearctic,Asia,China,Shawo CH 3,31.53712,114.98332,0,55836.4,14.0711,0,-22,25,10899.5,0,0,52,0,42.543
Dataset_3_442,BC 5160,S 178,Indomalayan,Asia,China,Shisandui,22.6,103.85,0,0,6.56215,0,0,0,1000,0,0,60,0,82.1871
Dataset_3_443,BC 5163,S 178,Indomalayan,Asia,China,Qiliangdong,27.98861,109.59028,0,0,11.8284,-3,-16,20,0,0,0,69,0,558.029
Dataset_3_444,BC 5200,S 179,Indomalayan,Asia,China,Xianrendong,25.2,99.23333,0,0,12.4912,-5,-6,12,1414.21,0,0,88,0,630.047
Dataset_3_445,BC 5211,S 179,Indomalayan,Asia,China,Qingshuigu,24.90649,113.05663,30,59780.4,31,0,0,0,16970.6,0,0,41,0,4.83518
Dataset_3_446,BC 5214,S 179,Indomalayan,Asia,China,Fujian_Jixincunkuangdong,24.6,117.25,0,58394.9,14,0,-22,24,7071.07,0,0,51,17134,127.929
Dataset_3_447,BC 5236,S 182,Afrotropical,Africa,Kenya,Makingeny Cave,1.03553,34.75305,29,34949.3,11.4853,0,0,0,13000,0,0,38,0,145.01
Dataset_3_448,BC 5239,S 182,Afrotropical,Africa,Kenya,Kitum Cave,1.02937,34.7558,29,34949.3,11.4853,0,0,0,13000,0,0,41,0,145.01
Dataset_3_449,BC 5244,S 182,Afrotropical,Africa,Kenya,Mahiakalo Cave,0.24454,34.90689,26,0,33.5563,0,0,0,9656.85,0,0,46,0,0.57239
Dataset_3_450,BC 5252,S 182,Afrotropical,Africa,Kenya,Lion Hill Cave,-0.34589,36.11918,0,0,27.3137,-4,0,6,1414.21,0,0,124,0,6.72922
Dataset_3_451,BC 5269,S 182,Afrotropical,Africa,Kenya,Pipeline Cave,-0.53911,36.29431,0,0,20.3848,0,0,2,4828.43,0,0,101,0,43.1151
Dataset_3_452,BC 5278,S 182,Afrotropical,Africa,Kenya,Nyamindi River Cave,-0.55522,37.3881,0,0,16.3137,-4,0,0,4828.43,0,0,79,0,372.305
Dataset_3_453,BC 5279,S 182,Afrotropical,Africa,Kenya,Marima Cave,-0.26375,37.68681,0,0,13.2426,0,0,0,33828.4,0,0,67,0,657.116
Dataset_3_454,BC 5294,S 182,Afrotropical,Africa,Kenya,Lumo Mine,-3.45061,38.19808,0,0,18.7279,0,4,0,12485.3,0,0,86,0,6.45137
Dataset_3_455,BC 5314,S 182,Afrotropical,Africa,Kenya,Shimoni Slave Caves,-4.64725,39.38036,0,0,18.7279,0,0,0,0,0,0,46,0,205.27
Dataset_3_456,BC 5333,S 182,Afrotropical,Africa,Kenya,Watamu Cave,-3.35109,40.01544,0,0,18.0711,0,0,0,0,0,0,629,0,3735.48
Dataset_3_457,BC 5345,S 183,Afrotropical,Africa,Rwanda,Cyamudongo CAVE,-2.54925,28.99836,28,0,37.6569,0,0,0,6828.43,0,0,60,0,613.707
Dataset_3_458,BC 5348,S 183,Afrotropical,Africa,Rwanda,Nyungwe Cave,-2.45402,29.18939,33,60184.8,36.4142,0,0,0,16242.6,0,49.7359,45,0,37.1927
Dataset_3_459,BC 5349,S 183,Afrotropical,Africa,Rwanda,Bweyeye Cave,-2.61939,29.20783,27,0,36.4142,-1,1,0,22142.1,0,0,61,0,280.762
Dataset_3_460,BC 5350,S 183,Afrotropical,Africa,Rwanda,Ruginga Cave,-1.46377,29.5851,0,46232.1,36.4142,0,0,0,6242.64,0,0,60,0,1096.71
Dataset_3_461,BC 5351,S 183,Afrotropical,Africa,Rwanda,Musanze Tourist Cave,-1.504,29.61324,0,34880.4,25.6569,0,0,0,1000,0,0,78,0,2657.52
Dataset_3_462,BC 5355,S 183,Afrotropical,Africa,Rwanda,Susa Cave,-1.50574,29.6147,0,34880.4,5.24264,0,0,0,1000,0,0,71,0,2657.52
Dataset_3_463,BC 5356,S 183,Afrotropical,Africa,Rwanda,Samatare Cave,-1.50574,29.6147,0,34880.4,5.24264,0,0,0,1000,0,0,71,0,2657.52
Dataset_3_464,BC 5363,S 184,Neotropical,South America,Brazil,Lapa da Gameleira,-16.23469,-44.48875,0,0,-9999,0,0,0,2828.43,0,0,83,0,5.15365
Dataset_3_465,BC 5367,S 184,Neotropical,South America,Brazil,Lapa da Tiririca,-16.22361,-44.47061,0,0,-9999,0,0,0,1000,0,0,100,0,5.15365
Dataset_3_466,BC 5393,S 184,Neotropical,South America,Brazil,Gruta dos Farias,-7.33306,-39.41275,0,44515.8,-9999,0,0,0,0,0,0,86,0,101.882
Dataset_3_467,BC 5476,S 184,Neotropical,South America,Brazil,Gruta Pedra da Santa II,0,0,0,0,-9999,0,0,0,0,0,0,2328,0,0
Dataset_3_468,BC 5477,S 184,Neotropical,South America,Brazil,Gruta Pedra da Santa,0,0,0,0,-9999,0,0,0,0,0,0,2328,0,0
Dataset_3_469,BC 5489,S 185,Neotropical,South America,Colombia,GalerÌas Fuerte ¡ngel San Rafael,10.329,-75.58024,0,0,3.82843,0,0,0,0,0,99.4718,509,0,2154.12
Dataset_3_470,BC 5494,S 185,Neotropical,South America,Colombia,Cueva del Tigre,10.93978,-75.00272,0,46697.6,3.82843,0,-13,14,1000,0,0,73,0,73.6693
Dataset_3_471,BC 5498,S 185,Neotropical,South America,Colombia,Cueva del murciÈlago,11.26359,-74.19336,0,0,3.82843,0,-40,41,0,0,0,765,0,281.879
Dataset_3_472,BC 5499,S 185,Neotropical,South America,Colombia,El tigre,6.2603,-73.1349,27,0,8.24264,0,-17,18,3414.21,0,0,52,0,24.9378
Dataset_3_473,BC 5506,S 185,Neotropical,South America,Colombia,La virgen,6.32911,-73.10238,35,46841.2,8.24264,0,-26,27,4828.43,0,99.4718,52,0,64.9231
Dataset_3_474,BC 5519,S 186,Palearctic,Europe,Spain,Natura 2000 Cave_38.1912-2.0462,38.1912,-2.0462,0,0,55.6569,-9,0,12,6828.43,0,0,61,0,10.3988
Dataset_3_475,BC 5528,S 186,Palearctic,Europe,Spain,Natura 2000 Cave_38.1102-1.8595,38.1102,-1.8595,0,0,55.7279,0,0,0,0,0,0,765,0,36.2775
Dataset_3_476,BC 5530,S 186,Palearctic,Europe,Spain,Natura 2000 Cave_38.2337-1.7374,38.2337,-1.7374,0,0,55.7279,0,0,0,1000,0,0,121,0,48.7935
Dataset_3_477,BC 5538,S 186,Palearctic,Europe,Spain,Natura 2000 Cave_37.8525-1.661,37.8525,-1.661,0,0,56.5563,0,0,5,4242.64,0,49.7359,78,0,125.386
Dataset_3_478,BC 5564,S 186,Palearctic,Europe,Spain,Natura 2000 Cave_37.9848-1.5234,37.9848,-1.5234,0,0,25.4558,0,0,0,1000,1000,49.7359,104,0,161.544
Dataset_3_479,BC 5570,S 186,Palearctic,Europe,Spain,Natura 2000 Cave_37.9965-1.4883,37.9965,-1.4883,0,0,25.4558,0,0,0,1000,0,49.7359,113,0,164.46
Dataset_3_480,BC 5582,S 186,Palearctic,Europe,Spain,Natura 2000 Cave_37.8648-1.4625,37.8648,-1.4625,0,0,33.2426,0,0,0,0,0,0,113,0,78.9169
Dataset_3_481,BC 5583,S 186,Palearctic,Europe,Spain,Natura 2000 Cave_37.8519-1.4599,37.8519,-1.4599,0,0,42,0,0,0,0,0,0,218,0,78.9169
Dataset_3_482,BC 5584,S 186,Palearctic,Europe,Spain,Natura 2000 Cave_37.8974-1.457,37.8974,-1.457,0,0,42,0,0,0,1414.21,0,0,113,0,78.9127
Dataset_3_483,BC 5590,S 186,Palearctic,Europe,Spain,Natura 2000 Cave_38.2496-1.4294,38.2496,-1.4294,0,0,34.8995,0,0,0,0,0,0,174,0,114.651
Dataset_3_484,BC 5601,S 186,Palearctic,Europe,Spain,Natura 2000 Cave_37.8619-1.3488,37.8619,-1.3488,0,0,34.8995,-15,14,0,0,0,0,156,0,88.3919
Dataset_3_485,BC 5602,S 186,Palearctic,Europe,Spain,Natura 2000 Cave_37.6005-1.3302,37.6005,-1.3302,0,0,34.8995,-14,14,0,0,0,49.7359,720,0,129.008
Dataset_3_486,BC 5608,S 186,Palearctic,Europe,Spain,Natura 2000 Cave_38.5873-1.1973,38.5873,-1.1973,0,0,38.9706,-11,11,0,2828.43,0,0,85,23233,67.9953
Dataset_3_487,BC 5610,S 186,Palearctic,Europe,Spain,Natura 2000 Cave_37.9312-1.1294,37.9312,-1.1294,0,0,44.3848,0,0,0,0,0,0,570,0,590.452
Dataset_3_488,BC 5612,S 186,Palearctic,Europe,Spain,Natura 2000 Cave_38.21-1.1174,38.21,-1.1174,0,0,46.6274,-9,9,0,0,0,0,630,0,79.4719
Dataset_3_489,BC 5614,S 186,Palearctic,Europe,Spain,Natura 2000 Cave_38.1017-1.0888,38.1017,-1.0888,0,0,40.0416,0,0,0,0,1000,49.7359,190,0,426.321
Dataset_3_490,BC 5617,S 186,Palearctic,Europe,Spain,Natura 2000 Cave_38.203-1.0667,38.203,-1.0667,0,0,43.5269,-10,11,0,0,0,0,178,0,33.0272
Dataset_3_491,BC 5618,S 186,Palearctic,Europe,Spain,Natura 2000 Cave_38.0799-1.0517,38.0799,-1.0517,0,0,43.5269,0,0,-2,0,0,49.7359,396,0,426.321
Dataset_3_492,BC 5631,S 186,Palearctic,Europe,Spain,Natura 2000 Cave_37.837-0.7763,37.837,-0.7763,0,0,42.0122,0,0,0,0,0,0,682,0,1580.97
Dataset_3_493,BC 5645,S 187,Indomalayan,Asia,Nepal,Gupteshwor cave B,28.18969,83.95814,0,0,12.2426,0,0,0,0,0,0,255,0,4280.46
Dataset_3_494,BC 5646,S 187,Indomalayan,Asia,Nepal,Chamere Gupha,28.26736,83.97603,0,0,5.24264,-6,-8,12,1000,0,0,66,0,2515.27
Dataset_3_495,BC 5651,S 187,Indomalayan,Asia,Nepal,Mahendra cave B,28.27211,83.97936,0,0,5.24264,-6,-8,12,2000,0,0,66,0,2515.27
Dataset_3_496,BC 5656,S 187,Indomalayan,Asia,Nepal,Armala cave,28.27025,83.98397,0,0,22.8284,-6,-8,12,2000,0,0,69,0,1385.06
Dataset_3_497,BC 5657,S 187,Indomalayan,Asia,Nepal,Crazy cave B,28.2615,83.98583,0,0,12.8284,-6,-8,12,1000,0,0,81,0,3655.64
Dataset_3_498,BC 5672,S 187,Indomalayan,Asia,Nepal,Sita cave B,28.1405,84.09494,0,0,7.07107,-1,0,0,3828.43,0,0,59,0,827.035
Dataset_3_499,BC 5675,S 188,Indomalayan,Asia,Nepal,Pathikhola cave*,28.31544,83.91083,0,0,36.6985,-9,-13,20,8242.64,0,0,64,0,408.054
Dataset_3_500,BC 5677,S 189,Indomalayan,Asia,Nepal,Halesi cave*,27.19255,86.62222,0,0,36.6985,-6,0,6,26627.4,0,0,61,0,138.772
Dataset_3_501,BC 5679,S 190,Indomalayan,Asia,Nepal,Pauwa cave#,28.39,83.586,0,0,36.6985,-8,-11,18,17414.2,0,0,51,0,186.861
Dataset_3_502,BC 5681,S 190,Indomalayan,Asia,Nepal,Parbati cave#,28.253,83.643,0,0,36.6985,-8,-5,14,17414.2,0,0,50,0,117.009
Dataset_3_503,BC 5687,S 190,Indomalayan,Asia,Nepal,Gupteshore cave#,28.227,83.674,0,0,36.6985,0,0,6,14414.2,0,0,50,0,570.514
Dataset_3_504,BC 5800,S 192,Neotropical,South America,Brazil,Santana A,-24.53306,-48.70806,27,38283,4,0,0,0,7000,0,149.208,40,0,0.62074
Dataset_3_505,BC 5853,S 192,Neotropical,South America,Brazil,CÛrrego Seco A,-24.55139,-48.68278,0,55794.3,48.9411,0,0,0,9828.43,0,149.208,51,0,18.9043
Dataset_3_506,BC 5875,S 192,Neotropical,South America,Brazil,Alambari de baixo A,-24.55666,-48.66527,25,51713,53.7696,0,0,0,11242.6,0,149.208,35,0,0.88632
Dataset_3_507,BC 5902,S 193 1J,Palearctic,Africa,Tunisia,Unknown cave S193 1J,36.45,8.43333,0,0,24.6274,0,3,-3,0,0,49.7359,765,0,119.684
Dataset_3_508,BC 5903,S 193 1Q,Palearctic,Africa,Tunisia,Unknown cave 193Q,34.95,8.56667,0,0,24.6274,0,0,0,0,0,49.7359,663,0,56.4213
Dataset_3_509,BC 5904,S 193 1R,Palearctic,Africa,Tunisia,Unknown cave 1R,34.95,8.56667,0,0,5.41421,0,0,0,0,0,49.7359,663,0,56.4213
Dataset_3_510,BC 5904,S 193 1R,Palearctic,Africa,Tunisia,Unknown cave 1R,34.95,8.56667,0,0,5.41421,0,0,0,0,0,49.7359,663,0,56.4213
Dataset_3_511,BC 5905,S 193 1W,Palearctic,Africa,Tunisia,Unknown cave 193 1W,34.95,8.56667,0,0,34.6274,0,0,0,0,0,49.7359,663,0,56.4213
Dataset_3_512,BC 5920,S 193 1Z,Palearctic,Africa,Tunisia,Unknown cave 193 1Z,36.75,8.63333,0,0,21.4142,-5,-15,19,1000,1000,99.4718,64,0,67.6461
Dataset_3_513,BC 5921,S 193 1F,Palearctic,Africa,Tunisia,Kohl mine,36.76667,8.68333,0,0,21.4142,-2,-15,17,1000,0,99.4718,354,0,67.6461
Dataset_3_514,BC 5989,S 193 1F,Palearctic,Africa,Tunisia,Djebel Trozza mine,35.56667,9.6,0,0,14.0711,-19,19,0,4414.21,3000,0,95,0,66.1319
Dataset_3_515,BC 6005,S 193 1K,Palearctic,Africa,Tunisia,Ichkeul National Park cave S 193 1K,37.13333,9.66667,0,0,15.8284,0,0,0,0,1000,0,48,0,572.92
Dataset_3_516,BC 6007,S 193 1C,Palearctic,Africa,Tunisia,Tebourba cave,36.83333,9.83333,0,0,15.8284,0,0,0,0,0,0,765,0,134.02
Dataset_3_517,BC 6008,S 193 1E,Palearctic,Africa,Tunisia,Tebourba cave,36.83333,9.83333,0,0,15.8284,0,0,0,0,0,0,765,0,134.02
Dataset_3_518,BC 6019,S 193 1D,Palearctic,Africa,Tunisia,Toujane cave,33.48333,10.11667,0,0,17,0,0,0,6414.21,0,0,119,0,67.8034
Dataset_3_519,BC 6020,S 193 1F,Palearctic,Africa,Tunisia,Toujane cave,33.48333,10.11667,0,0,17,0,0,0,6414.21,0,0,119,0,67.8034
Dataset_3_520,BC 6085,S 193 1F,Palearctic,Africa,Tunisia,Mine no. 7,36.78333,10.85,0,0,0,0,4,0,2000,0,0,103,0,284.022
Dataset_3_521,BC 6091,S 193 1V,Palearctic,Africa,Tunisia,CarriËres les grottes,37.05,10.98333,0,0,0,-13,12,0,1000,0,49.7359,109,0,124.234
Dataset_3_522,BC 6093,S 193 1U,Palearctic,Africa,Tunisia,Punic quarry (cave),37.04198,10.99174,0,0,0,-13,12,0,1000,0,49.7359,118,0,124.234
Dataset_3_523,BC 6094,S 193 1U,Palearctic,Africa,Tunisia,Roman Grottos,37.05944,10.99507,0,0,0,0,0,0,1000,0,49.7359,38,0,124.234
Dataset_3_524,BC 6095,S 193 1F,Palearctic,Africa,Tunisia,Roman Grottos,37.05944,10.99507,0,0,0,0,0,0,1000,0,49.7359,38,0,124.234
Dataset_3_525,BC 6097,S 193 1D,Palearctic,Africa,Tunisia,Roman Grottos,37.05944,10.99507,0,0,0,0,0,0,1000,0,49.7359,38,0,124.234
Dataset_3_526,BC 6102,S 193 1O,Palearctic,Africa,Tunisia,Tabouda wadi cave,37.06833,11.01972,0,0,0,0,0,0,1414.21,0,49.7359,44,0,124.234
Dataset_3_527,BC 6104,S 193 A1,Palearctic,Africa,Tunisia,Bat cave of El Haouaria,37.06535,11.03109,0,0,0,0,0,0,1414.21,0,49.7359,99,0,124.234
Dataset_3_528,BC 6105,S 193 1U,Palearctic,Africa,Tunisia,Bat cave of El Haouaria,37.06535,11.03109,0,0,0,0,0,0,1414.21,0,49.7359,99,0,124.234
Dataset_3_529,BC 6107,S 193 1V,Palearctic,Africa,Tunisia,Bat cave of El Haouaria,37.06535,11.03109,0,0,0,0,0,0,1414.21,0,49.7359,99,0,124.234
Dataset_3_530,BC 6109,S 193 1D,Palearctic,Africa,Tunisia,Bat cave of El Haouaria,37.06535,11.03109,0,0,0,0,0,0,1414.21,0,49.7359,99,0,124.234
Dataset_3_531,BC 6111,S 193 1F,Palearctic,Africa,Tunisia,Bat cave of El Haouaria,37.06535,11.03109,0,0,0,0,0,0,1414.21,0,49.7359,99,0,124.234
Dataset_3_532,BC 6112,S 193 1J,Palearctic,Africa,Tunisia,Bat cave of El Haouaria,37.06535,11.03109,0,0,0,0,0,0,1414.21,0,49.7359,99,0,124.234
Dataset_3_533,BC 6113,S 193 1Z,Palearctic,Africa,Tunisia,Bat cave of El Haouaria,37.06535,11.03109,0,0,0,0,0,0,1414.21,0,49.7359,99,0,124.234
Dataset_3_534,BC 6126,S 193 1V,Palearctic,Africa,Tunisia,Sidi Amer Cave,37.1,11.05,30,0,8.24264,0,0,0,31799,0,0,26,0,0
Dataset_3_535,BC 6138,S 194,Neotropical,South America,Cuba,Cueva Joelito,23.1805,-81.1917,0,0,13727.9,0,0,0,0,0,0,585,0,179.162
Dataset_3_536,BC 6140,S 194,Neotropical,South America,Cuba,Cueva Santa Catalina,23.1519,-81.677,0,0,9899.5,0,0,0,1414.21,0,0,33,0,0
Dataset_3_537,BC 6152,S 194,Neotropical,South America,Cuba,Cueva Rufino,23.1519,-81.677,0,0,9899.5,0,0,0,1414.21,0,0,33,0,0
Dataset_3_538,BC 6153,S 194,Neotropical,South America,Cuba,Cueva La Chucha,23.1519,-81.677,0,0,9899.5,0,0,0,1414.21,0,0,33,0,0
Dataset_3_539,BC 6156,S 194,Neotropical,South America,Cuba,Cueva Los MajaÈs,23.1519,-81.677,0,0,9899.5,0,0,0,1414.21,0,0,33,0,0
Dataset_3_540,BC 6162,S 194,Neotropical,South America,Cuba,Cueva Cristales,23.0208,-81.5261,0,0,3414.21,-2,-22,26,0,0,0,176,0,488.435
Dataset_3_541,BC 6164,S 194,Neotropical,South America,Cuba,Cueva EloÌsa,23.0208,-81.5261,0,0,3414.21,-2,-22,26,0,0,0,176,0,488.435
Dataset_3_542,BC 6184,S 194,Neotropical,South America,Cuba,Cueva Los Bichos,23.017,-81.5361,0,0,3828.43,-2,-22,26,0,0,0,192,0,488.435
Dataset_3_543,BC 6186,S 194,Neotropical,South America,Cuba,Cueva La Campana (Simpson),23.0602,-81.5876,0,0,5828.43,-5,-23,28,0,0,0,517,0,488.435
Dataset_3_544,BC 6202,S 194,Neotropical,South America,Cuba,Cueva Humdbolt,23.124,-81.67,0,0,9071.07,0,-32,34,1414.21,0,0,48,0,82.6032
Dataset_3_545,BC 6205,S 194,Neotropical,South America,Cuba,Cueva El Gato,22.94,-80.925,0,0,14899.5,-2,-17,19,0,0,0,221,20303,21.2198
Dataset_3_546,BC 6213,S 194,Neotropical,South America,Cuba,Cueva La Virgen,22.94,-80.925,0,0,14899.5,-2,-17,19,0,0,0,221,20303,21.2198
Dataset_3_547,BC 6223,S 194,Neotropical,South America,Cuba,Cueva Las Calderas,21.589,-77.684,0,0,4414.21,0,0,0,6656.85,0,298.416,38,0,33.3246
Dataset_3_548,BC 6227,S 195,Neotropical,South America,Bolivia,Curicha (C1),-16.30397,-58.30754,0,0,10656.9,0,15,-15,9071.07,0,0,80,0,0.5034
Dataset_3_549,BC 6234,S 195,Neotropical,South America,Bolivia,Cueva AscensiÛn (Asc),-15.87764,-63.18217,0,0,15142.1,0,10,-10,1000,1000,397.887,87,0,4.36957
Dataset_3_550,BC 6235,S 195,Neotropical,South America,Bolivia,Cueva del Yeso (CY),-16.35668,-60.96482,0,71729.7,1414.21,0,20,-20,0,0,248.68,300,0,1.26228
Dataset_3_551,BC 6257,S 196,Austral-Oceania,Australia,Australia,Bramston Beach Cave,-17.3613,146.02914,0,35555.4,21485.3,0,0,0,0,1000,99.4718,58,0,11.0989
Dataset_3_552,BC 6260,S 196,Austral-Oceania,Australia,Australia,Mount Cotton Road Culvert,-27.60504,153.234,0,38373.6,8242.64,0,0,0,0,0,0,179,0,17.4311
Dataset_3_553,BC 6261,S 196,Austral-Oceania,Australia,Australia,Yugar Railway Tunnel (disused),-27.34536,152.87417,0,41017.5,7414.21,0,29,-29,1414.21,0,0,74,0,79.4732
Dataset_3_554,BC 6262,S 196,Austral-Oceania,Australia,Australia,Muntapa Railway Tunnel (disused),-27.0758,151.7481,0,0,32284.3,0,0,0,23242.6,0,0,64,0,0.85964
Dataset_3_555,BC 6265,S 196,Austral-Oceania,Australia,Australia,Woodhill Mountain Road Bridge,-34.77204,150.70372,0,0,5656.85,0,0,0,7656.85,0,99.4718,437,0,58.2879
Dataset_3_556,BC 6266,S 196,Austral-Oceania,Australia,Australia,Brockdrick Boulavarde Culvert,-33.71349,150.95165,0,0,10242.6,-5,0,0,0,0,0,573,0,896.661
Dataset_3_557,BC 6268,S 196,Austral-Oceania,Australia,Australia,Illaroo Escarpment Cave,-34.83866,150.4746,34,62780,2828.43,0,0,0,5000,5414.21,0,32,0,1.8061
Dataset_3_558,BC 6269,S 196,Austral-Oceania,Australia,Australia,Waganderry Pass Trail Mining Shaft,-34.29934,150.25889,0,78884.3,20071.1,0,0,0,16556.3,4000,0,41,0,0.94254
Dataset_3_559,BC 6270,S 196,Austral-Oceania,Australia,Australia,Greenhills culvert,-34.03278,151.16759,0,0,1000,0,0,0,0,0,0,342,0,0
Dataset_3_560,BC 6271,S 196,Austral-Oceania,Australia,Australia,Magnetic Island Military Bunker,-19.12346,146.87162,0,0,16899.5,0,0,0,0,13656.9,0,61,0,13.1626
Dataset_3_561,BC 6272,S 196,Austral-Oceania,Australia,Australia,Battery Causeway Crevice,-34.0963,150.97948,0,72541.6,4828.43,0,0,0,0,0,0,76,0,0.46877
Dataset_3_562,BC 6279,S 196,Austral-Oceania,Australia,Australia,Pacific Highway Culvert (Halfcreek),-29.94283,153.10507,29,48568,15313.7,0,0,0,27313.7,0,0,43,0,0.79971
Dataset_3_563,BC 6282,S 196,Austral-Oceania,Australia,Australia,Darkes Road Culvert,-34.47967,150.79661,0,35874.9,2414.21,0,21,-24,0,0,99.4718,545,0,115.706
Dataset_3_564,BC 6283,S 196,Austral-Oceania,Australia,Australia,St. Michaels Cave,-33.63059,151.33953,0,0,2000,0,0,0,0,0,49.7359,84,0,1893.93
Dataset_3_565,BC 6284,S 196,Austral-Oceania,Australia,Australia,Comenarra Parkway Drain,-33.73973,151.10552,0,0,6242.64,-1,-6,9,0,0,0,427,0,1282.51
Dataset_3_566,BC 6290,S 197,Indomalayan,Asia,Philippines,Malusak Cave,13.84438,122.05894,0,0,4414.21,0,-26,27,8828.43,0,0,43,0,240.332
Dataset_3_567,BC 6295,S 197,Indomalayan,Asia,Philippines,Mahangin Cave,13.84415,122.05877,0,0,4414.21,0,-26,27,8828.43,0,0,43,0,240.332
Dataset_3_568,BC 6301,S 197,Indomalayan,Asia,Philippines,De Lamesa Cave,13.84464,122.05876,0,0,4414.21,0,-26,27,8828.43,0,0,43,0,240.332
Dataset_3_569,BC 6310,S 198,Afrotropical,Asia,Qatar,Umkareibah sinkhole,25.72777,51.32975,0,0,17485.3,0,0,0,0,0,0,229,0,909.076
Dataset_3_570,BC 6314,S 198,Afrotropical,Asia,Qatar,Al Suberiat sinkhole,25.59556,51.11098,0,0,22727.9,0,0,0,0,0,0,579,0,10.6713
Dataset_3_571,BC 6316,S 198,Palearctic,Asia,Qatar,Wadi Jallal,25.02948,51.27687,0,0,29213.2,0,0,0,0,1000,0,148,0,0.54626
Dataset_3_572,BC 6318,S 198,Palearctic,Asia,Qatar,Nearby sand dune,24.96034,51.29294,0,0,29213.2,0,0,0,0,0,0,142,0,0.54626
Dataset_3_573,BC 6319,S 198,Palearctic,Asia,Qatar,Al Aamriya farms,24.82525,51.07788,0,0,29213.2,0,0,0,0,0,0,630,0,5.12563
Dataset_3_574,BC 6325,S 199,Indomalayan,Asia,Philippines,Balay'g Kolon,9.90315,123.5465,0,0,8656.85,0,-34,34,14313.7,0,0,52,0,418.692
Dataset_3_575,BC 6327,S 199,Indomalayan,Asia,Philippines,Kasiyay,9.9003,123.5454,0,0,8656.85,0,-34,34,14313.7,0,0,51,0,418.692
Dataset_3_576,BC 6363,S 202,Indomalayan,Asia,India,Yeni Kodai cave,9.83333,77.4,0,0,21485.3,-7,6,0,1000,0,0,100,0,578.929
Dataset_3_577,BC 6376,S 204,Indomalayan,Asia,Indonesia,Sarongge,-7.57711,108.20278,0,0,16242.6,0,-11,14,6242.64,3828.43,0,35,0,678.946
Dataset_3_578,BC 6400,S 208,Indomalayan,Asia,Philippines,Agpan E,8.12153,126.10236,0,0,16556.3,0,0,0,9828.43,1414.21,0,37,0,40.5067
Dataset_3_579,BC 6404,S 208,Indomalayan,Asia,Philippines,Taonaga cave F,8.04261,126.06269,0,0,24142.1,0,-24,24,0,0,0,335,0,671.938
Dataset_3_580,BC 6408,S 223,Neotropical,South America,Puerto Rico,Convento cave,18.35,-65.7,0,0,9485.28,0,-11,0,0,0,547.095,584,0,263.464
Dataset_3_581,BC 6409,S 224,Indomalayan,Asia,Indonesia,Goa Dalem,-6.71597,108.40037,0,0,12313.7,4,0,-6,0,0,49.7359,703,0,2095.81
Dataset_3_582,BC 6412,S 225,Indomalayan,Asia,Nepal,Chamere Dhulo cave,27.9175,83.47119,0,0,17414.2,-2,-15,18,6656.85,0,0,45,0,310.784
Dataset_3_583,BC 6414,S 225,Indomalayan,Asia,Nepal,Holy cave,27.89472,83.53639,0,0,13414.2,-1,-18,19,3000,0,0,55,0,171.214
Dataset_3_584,BC 6418,S 225,Indomalayan,Asia,Nepal,Sree Siddha cave,27.90497,83.63172,0,0,8000,-3,-11,13,6656.85,0,0,36,0,191.103
Dataset_3_585,BC 6419,S 225,Indomalayan,Asia,Nepal,Bat cave Nepal 2,28.26647,83.97008,0,0,5414.21,-6,-8,12,1000,0,0,74,0,1934.48
Dataset_3_586,BC 6420,S 225,Indomalayan,Asia,Nepal,Mahenda cave,28.26758,83.97378,0,0,5414.21,-6,-8,12,1000,0,0,66,0,1288.76
Dataset_3_587,BC 6423,S 226,Indomalayan,Asia,Nepal,Chameri cave,28.40179,82.56869,0,0,19656.9,-2,-36,39,36213.2,0,0,44,0,176.037
Dataset_3_588,BC 6427,S 228,Afrotropical,Africa,Madagascar,Andranolovy cave,-24.04585,43.75396,0,0,3414.21,-3,2,0,60485.3,4000,0,85,0,9.89793
Dataset_3_589,BC 6432,S 228,Afrotropical,Africa,Madagascar,Vintany cave,-24.04383,43.75519,0,0,3414.21,-3,2,0,60485.3,4000,0,76,0,9.89793
Dataset_3_590,BC 6439,S 229,Indomalayan,Asia,India,Pynurkba,25.25,92.28333,28,51033.7,134414,0,0,0,3000,0,0,55,29343,105.445
Dataset_3_591,BC 6439,S 229,Indomalayan,Asia,India,Pynurkba,25.25,92.28333,28,51033.7,134414,0,0,0,3000,0,0,55,29343,105.445
Dataset_3_592,BC 6440,S 229,Indomalayan,Asia,India,Umlatdoh,25.2,92.26667,0,36006.1,133899,0,0,0,2828.43,0,0,46,0,105.445
Dataset_3_593,BC 6440,S 229,Indomalayan,Asia,India,Umlatdoh,25.2,92.26667,0,36006.1,133899,0,0,0,2828.43,0,0,46,0,105.445
Dataset_3_594,BC 6448,S 231,Indomalayan,Asia,Philippines,Cayasu cave,9.7393,122.92042,0,0,14899.5,-1,-23,26,1000,1414.21,0,54,0,443.895
Dataset_3_595,BC 6453,S 233,Indomalayan,Asia,Malaysia,Fairy cave Nature reserve,1.3775,110.11969,29,0,158142,0,-15,16,7828.43,0,0,50,0,74.125
Dataset_3_596,BC 6466,S 234,Indomalayan,Asia,India,Krem Labit 3,25.18286,92.37686,0,38051.8,139071,0,1,0,0,0,0,492,0,105.445
Dataset_3_597,BC 6470,S 234,Indomalayan,Asia,India,Krem Umlawan,25.16883,92.38258,0,0,138243,0,1,0,0,0,0,469,0,105.445
Dataset_3_598,BC 6474,S 234,Indomalayan,Asia,India,Krem Umadoh,25.19138,92.37333,25,41360.6,139485,0,1,0,0,0,0,765,0,105.445
Dataset_3_599,BC 6519,S 237,Afrotropical,Africa,South Africa,Gatkop,-24.61667,27.65,0,0,8414.21,0,5,0,12000,0,0,80,0,0.40376
Dataset_3_600,BC 004,S 001,Afrotropical,Africa,South Africa,Ballito,-29.53333,31.21667,0,0,4,0,0,0,0,0,0,744,0,2055.37
Dataset_3_601,BC 014,S 004,Afrotropical,Africa,Kenya,Pangayambo,-3.32241,40.02377,0,0,11.4853,5,8,-15,7656.85,0,0,96,0,399.691
Dataset_3_602,BC 015,S 004,Afrotropical,Africa,Kenya,Kaboga,-3.33451,40.03076,0,0,12.8284,5,8,-15,0,0,0,100,0,400.837
Dataset_3_603,BC 027,S 005,Indomalayan,Asia,Laos DPR,Tam Nam 2,18.03333,104.4,31,36433.7,1.41421,0,0,0,2414.21,2414.21,0,49,0,13.5025
Dataset_3_604,BC 028,S 005,Indomalayan,Asia,Laos DPR,Tam Der Som,18.03333,104.4,31,36433.7,1.41421,0,0,0,2414.21,2414.21,0,49,0,13.5025
Dataset_3_605,BC 042,S 005,Indomalayan,Asia,Laos DPR,Tam Nong Seng,18.08889,104.47639,0,0,3.41421,0,8,-8,6000,0,0,47,0,10.5304
Dataset_3_606,BC 046,S 005,Indomalayan,Asia,Laos DPR,Ban Kenghot,18.07083,104.49028,0,0,1.41421,0,8,-8,7656.85,0,0,51,0,10.5304
Dataset_3_607,BC 050,S 005,Indomalayan,Asia,Laos DPR,Tam Thea,18.14833,104.51583,25,0,1.41421,0,0,0,3414.21,1000,49.7359,51,0,22.0432
Dataset_3_608,BC 082,S 005,Indomalayan,Asia,Laos DPR,Tam jungvung,17.56111,104.8375,0,0,3.41421,0,0,0,6656.85,0,0,46,0,21.6073
Dataset_3_609,BC 089,S 005,Indomalayan,Asia,Laos DPR,Tam Gunhom,17.56389,104.84306,0,0,22.2426,0,0,0,8071.07,1000,0,47,0,21.1938
Dataset_3_610,BC 126,S 005,Indomalayan,Asia,Laos DPR,Tam Key Thea,17.54722,105.07917,32,48463.5,27.2426,0,24,-24,12071.1,1000,0,48,0,10.3138
Dataset_3_611,BC 174,S 007,Indomalayan,Asia,Thailand,Khao Kao Cave,6.7075,100.27733,0,0,45.3553,0,0,0,2414.21,0,0,55,0,97.8583
Dataset_3_612,BC 175,S 008,Indomalayan,Asia,Thailand,Wat Tam Pha Bing,17.23333,101.7,0,0,45.3553,0,0,0,3828.43,0,0,67,27158,82.284
Dataset_3_613,BC 260,S 010,Indomalayan,Asia,Indonesia,Petruk,-7.70525,109.40217,0,0,33.6274,0,0,0,8071.07,1000,0,48,0,854.402
Dataset_3_614,BC 267,S 010,Indomalayan,Asia,Indonesia,Jatijajar,-7.66657,109.42603,0,0,80.1127,0,0,0,5414.21,1000,0,58,0,854.401
Dataset_3_615,BC 268,S 010,Indomalayan,Asia,Indonesia,Inten,-7.67018,109.42653,31,0,33.8701,0,0,0,5414.21,1000,0,49,0,854.402
Dataset_3_616,BC 271,S 010,Indomalayan,Asia,Indonesia,Dempo,-7.66992,109.4272,31,0,2.82843,0,0,0,5414.21,1000,0,49,0,854.402
Dataset_3_617,BC 272,S 010,Indomalayan,Asia,Indonesia,Macan,-7.66242,109.43605,0,0,2.82843,0,0,0,5000,1000,0,61,0,854.401
Dataset_3_618,BC 290,S 012,Indomalayan,Asia,Nepal,Kailash cave A,28.09787,83.9053,0,0,36.6985,-4,-6,9,9656.85,0,0,55,21396,230.567
Dataset_3_619,BC 303,S 014,Indomalayan,Asia,Philippines,Naogon cave,9.82725,126.01547,0,34524.4,73.0416,0,-17,17,0,0,0,45,0,161.549
Dataset_3_620,BC 304,S 014,Indomalayan,Asia,Philippines,Million-bat cave,9.82728,126.01547,0,34524.4,73.0416,0,-17,17,0,0,0,45,0,161.549
Dataset_3_621,BC 318,S 015,Indomalayan,Asia,Philippines,Cambingsi,9.72459,124.16062,0,41441.6,12.6569,0,-26,26,14000,1000,0,43,0,83.531
Dataset_3_622,BC 362,S 016,Indomalayan,Asia,Philippines,Church Cave,11.77342,121.85578,0,0,10.6569,0,-35,36,14899.5,0,0,21,0,317.599
Dataset_3_623,BC 364,S 016,Indomalayan,Asia,Philippines,Lindero Cave,11.78042,121.8874,0,0,10.6569,0,-35,36,13485.3,0,0,43,0,260.048
Dataset_3_624,BC 369,S 016,Indomalayan,Asia,Philippines,Bungan Cave,11.7777,121.88955,0,0,12.7279,0,-35,36,13071.1,0,0,41,0,260.048
Dataset_3_625,BC 370,S 016,Indomalayan,Asia,Philippines,Ma Anghit Cave,11.779,121.89178,0,0,12.7279,0,-35,36,13071.1,0,0,43,0,231.221
Dataset_3_626,BC 406,S 018,Indomalayan,Asia,Indonesia,Bayon,-0.30506,130.90125,0,0,7,0,0,0,0,0,0,21,0,7.65223
Dataset_3_627,BC 420,S 021,Indomalayan,Asia,India,"Gupteswar, Koraput district",18.82095,82.16673,0,58995.7,3,3,0,-8,6656.85,0,0,42,0,443.412
Dataset_3_628,BC 424,S 021,Indomalayan,Asia,India,"Kandadhar, Sundergarh district",21.76095,85.11389,0,0,8.41421,0,-10,12,1414.21,0,348.151,50,0,172.035
Dataset_3_629,BC 427,S 022,Indomalayan,Asia,Vietnam,Phia Oac-Phia Den Nature (High Montane broadleaf evergreen forest),22.60778,105.87056,29,52250.2,6.82843,0,0,0,24071.1,1000,99.4718,40,0,48.5208
Dataset_3_630,BC 459,S 023,Indomalayan,Asia,India,Unknown cave,11.7401,92.6586,0,44302.4,13.8995,0,-14,15,2414.21,0,0,38,0,47.4945
Dataset_3_631,BC 475,S 027,Afrotropical,Asia,Iran,"Kazerun, Tang-e torkan cave",29.66667,51.5,0,0,9.41421,0,0,0,1414.21,0,49.7359,114,0,57.9188
Dataset_3_632,BC 477,S 027,Afrotropical,Asia,Iran,"kazerun, Dej-e Shahpur cave",29.78333,51.58333,0,0,9.41421,13,-13,0,0,0,0,474,0,57.9188
Dataset_3_633,BC 478,S 027,Afrotropical,Asia,Iran,"Kazerun, Ghaleh-e doktar cave",29.78333,51.58333,0,0,9.41421,13,-13,0,0,0,0,474,0,57.9188
Dataset_3_634,BC 479,S 027,Afrotropical,Asia,Iran,"Kazerun, Ghaleh-e Pesar cave",29.78333,51.58333,0,0,9.41421,13,-13,0,0,0,0,474,0,57.9188
Dataset_3_635,BC 480,S 027,Afrotropical,Asia,Iran,"Ghaemiyeh, Kaleh Kaftaru cave",29.78333,51.58333,0,0,12.0711,13,-13,0,0,0,0,474,0,57.9188
Dataset_3_636,BC 522,S 027,Palearctic,Asia,Iran,"Eghlid, Dasht-e bikah, Lileman cave",30.9,52.68333,0,0,2.41421,5,-5,0,0,1000,0,511,0,10.4709
Dataset_3_637,BC 530,S 027,Palearctic,Asia,Iran,"Shiraz, Zendan-e Nasr cave",29.88333,52.8,0,0,2.41421,0,0,0,0,1000,99.4718,765,0,90.4791
Dataset_3_638,BC 564,S 027,Palearctic,Asia,Iran,"Arsanjan, Gowhardan cave",29.95,53.26667,0,0,2.41421,0,0,0,0,0,0,164,0,31.0846
Dataset_3_639,BC 575,S 027,Afrotropical,Asia,Iran,"Jahrom, Sang Eshkan cave",28.48333,53.55,0,0,4.41421,0,0,0,0,0,0,765,0,38.6334
Dataset_3_640,BC 613,S 028,Palearctic,Africa,Algeria,Boukhiama3,37.23883,5.03245,0,0,14.8995,0,0,0,0,0,149.208,22,0,0
Dataset_3_641,BC 616,S 028,Palearctic,Africa,Algeria,Boukhiama4,37.23882,5.03245,0,0,8.65685,0,0,0,0,0,149.208,22,0,0
Dataset_3_642,BC 619,S 028,Palearctic,Africa,Algeria,Boukhiama1,37.23883,5.03245,0,0,8.65685,0,0,0,0,0,149.208,22,0,0
Dataset_3_643,BC 621,S 028,Palearctic,Africa,Algeria,Boukhiama2,37.23883,5.03245,0,0,8.65685,0,0,0,0,0,149.208,22,0,0
Dataset_3_644,BC 651,S 029,Indomalayan,Asia,Cambodia,La Ang Sankeur),12.95525,103.13597,0,0,36.2426,0,0,0,11828.4,0,99.4718,38,0,225.681
Dataset_3_645,BC 659,S 029,Indomalayan,Asia,Cambodia,Vihear Luong,10.66291,104.53802,0,0,43.5269,0,0,0,2828.43,0,198.944,71,53049,367.025
Dataset_3_646,BC 665,S 030,Palearctic,Asia,Iran,West TangeRad,33.9,46.41667,0,0,25.3848,0,0,0,1000,0,0,122,0,31.6286
Dataset_3_647,BC 666,S 030,Palearctic,Asia,Iran,East TangeRad,33.9,46.41667,0,0,25.3848,0,0,0,1000,0,0,122,0,31.6286
Dataset_3_648,BC 673,S 030,Afrotropical,Asia,Iran,Ghelapikah,32.9,46.71667,0,0,25.3848,0,0,0,6828.43,0,0,129,0,11.0025
Dataset_3_649,BC 728,S 033,Palearctic,Europe,Turkey,Kuru Cave,41.83889,27.55722,0,35301.4,0,0,-9,9,12828.4,0,0,48,0,49.8592
Dataset_3_650,BC 736,S 033,Palearctic,Europe,Turkey,Kiz,41.83528,27.55778,0,35301.4,0,0,-9,9,12828.4,1000,0,55,0,49.8592
Dataset_3_651,BC 1125,S 038,Palearctic,Europe,Bulgaria,Vodnata Peshtera,42.96667,22.08333,0,0,-9999,-3,-21,25,0,0,0,412,0,187.903
Dataset_3_652,BC 1159,S 038,Palearctic,Europe,Bulgaria,"Mishin kamak cave, v. Gorna Luka",42.93333,22.88333,0,0,-9999,0,0,0,3000,1000,0,48,0,15.4761
Dataset_3_653,BC 1179,S 038,Palearctic,Europe,Bulgaria,Koliba,41.6,23.16667,0,61681.1,8.65685,-4,0,0,3414.21,0,0,52,0,13.9594
Dataset_3_654,BC 1181,S 038,Palearctic,Europe,Bulgaria,Zandana,43.45,23.26667,0,0,8.82843,-2,0,0,1000,0,0,80,18674,68.816
Dataset_3_655,BC 1212,S 038,Palearctic,Europe,Bulgaria,Ponora,41.85,23.56667,0,0,8.41421,0,-20,20,3000,0,0,62,0,50.1898
Dataset_3_656,BC 1230,S 038,Palearctic,Europe,Bulgaria,Varkan,43.01667,23.75,0,0,19.7279,0,-39,39,12242.6,0,0,58,0,62.4777
Dataset_3_657,BC 1238,S 038,Palearctic,Europe,Bulgaria,Golashkata peshtera cave,42.03333,23.93333,25,69869.9,36.0416,0,0,0,2000,0,0,47,0,45.3199
Dataset_3_658,BC 1275,S 038,Palearctic,Europe,Bulgaria,Skoka,42.26667,24.36667,0,0,45.0122,0,4,0,1414.21,0,0,84,0,161.144
Dataset_3_659,BC 1319,S 038,Palearctic,Europe,Bulgaria,Ivanova Voda cave,42.01667,24.91667,0,0,13.3137,-4,8,-2,0,0,0,108,19510,95.0192
Dataset_3_660,BC 1340,S 038,Palearctic,Europe,Bulgaria,Futiovkata cave,43,25.01667,0,0,4.24264,0,-10,12,1414.21,0,0,67,0,27.7293
Dataset_3_661,BC 1372,S 038,Palearctic,Europe,Bulgaria,Aina Ini cave B,43.61667,25.51667,0,0,8.82843,-4,0,2,7414.21,1000,0,73,0,57.5686
Dataset_3_662,BC 1379,S 038,Palearctic,Europe,Bulgaria,Samara,43.61667,25.51667,0,0,4.24264,-4,0,2,7414.21,1000,0,73,0,57.5686
Dataset_3_663,BC 1415,S 038,Palearctic,Europe,Bulgaria,Orlovata,43.16667,26.33333,0,0,17.0711,-1,0,0,9071.07,0,0,68,0,20.1034
Dataset_3_664,BC 1442,S 038,Palearctic,Europe,Bulgaria,Dalbokata cave,43.16667,26.86667,0,0,38.9706,-2,0,0,3414.21,0,0,65,0,36.4342
Dataset_3_665,BC 1454,S 038,Palearctic,Europe,Bulgaria,Kaleto cave,43.31667,27.36667,0,0,61.799,-4,0,0,4000,0,0,65,0,20.6486
Dataset_3_666,BC 1455,S 038,Palearctic,Europe,Bulgaria,Leyarnitzite,43.31667,27.36667,0,0,20.7279,-4,0,0,4000,0,0,65,0,20.6486
Dataset_3_667,BC 1497,S 041,Palearctic,Europe,Romania,Muielier Cave,45.16667,23.76667,0,0,31,-2,-39,42,3000,0,99.4718,59,17145,29.6368
Dataset_3_668,BC 1506,S 042,Palearctic,Europe,Romania,Magura,46.51667,22.53333,0,0,22.8995,0,-47,47,4828.43,0,0,56,0,52.479
Dataset_3_669,BC 1508,S 042,Palearctic,Europe,Romania,Huda lui Papara,46.38333,23.28333,0,0,31,0,-39,40,10414.2,0,0,209,0,39.3132
Dataset_3_670,BC 1566,S 044,Palearctic,Europe,Italy,Grotta Dasterru di Punta Giglio,40.6,8.2,0,0,8.41421,0,0,0,0,0,0,29,0,0
Dataset_3_671,BC 1580,S 044,Palearctic,Europe,Italy,Crovassa di Ziu Pascale Fais,40.1,8.5,0,0,9.41421,-2,-26,30,0,0,0,88,0,0.7274
Dataset_3_672,BC 1588,S 044,Palearctic,Europe,Italy,Grotta Badde o Su Guanu,40.3,8.7,0,0,9.8995,0,-12,13,4242.64,0,0,76,0,0.03823
Dataset_3_673,BC 1593,S 044,Palearctic,Europe,Italy,Su Stampu de Muscione Stunnu,40.3,8.7,0,0,15.4142,0,-12,13,4242.64,0,0,76,0,0.03823
Dataset_3_674,BC 1594,S 044,Palearctic,Europe,Italy,Grotta Tuva 'e Mare,40.4,8.7,0,0,15.4142,0,-5,6,1000,0,0,94,0,0
Dataset_3_675,BC 1596,S 044,Palearctic,Europe,Italy,Grotta Sa Ucca de su Tintittiolu,40.4,8.7,0,0,15.4142,0,-5,6,1000,0,0,94,0,0
Dataset_3_676,BC 1617,S 044,Palearctic,Europe,Italy,Grotta SA Conca'e s' Abba,40.5,9,0,36196.3,23.3848,-2,-24,28,7071.07,0,0,54,0,0.14032
Dataset_3_677,BC 1618,S 044,Palearctic,Europe,Italy,Sa Conca 'e s' Abba,40.5,9,0,36196.3,23.3848,-2,-24,28,7071.07,0,0,54,0,0.14032
Dataset_3_678,BC 1635,S 044,Palearctic,Europe,Italy,Grotta di Su Marmuri,39.8,9.5,0,0,11,-3,-7,12,1000,0,49.7359,62,0,291.249
Dataset_3_679,BC 1648,S 044,Palearctic,Europe,Italy,Sa Rutta 'e sos Cincideddos,40,9.6,0,0,35.6569,-4,0,10,2414.21,0,0,72,0,1.08618
Dataset_3_680,BC 1656,S 044,Palearctic,Europe,Italy,Grotta di Punta degli Stretti,42.4,11.1,0,0,22.1421,0,0,0,1414.21,0,0,61,0,3.73104
Dataset_3_681,BC 1669,S 044,Palearctic,Europe,Italy,Pietramora,44.1,12.1,0,0,47.0416,0,0,0,2000,1000,0,83,0,13.6709
Dataset_3_682,BC 1692,S 044,Palearctic,Europe,Italy,Grotta delle Streghe,41.8,15.5,0,0,18.7279,-4,-15,19,0,0,0,262,0,0.13865
Dataset_3_683,BC 1694,S 044,Palearctic,Europe,Italy,Grotta del Vottarino,40.1,15.6,0,0,40.3137,0,0,0,0,0,0,114,0,29.3413
Dataset_3_684,BC 1695,S 044,Palearctic,Europe,Italy,Tufara S. Lucia,41.5,15.9,0,0,40.3137,0,0,0,5414.21,1000,0,62,0,2.46777
Dataset_3_685,BC 1697,S 044,Palearctic,Europe,Italy,Grava di Campolato,41.6,15.9,0,0,38.2426,0,0,0,0,0,0,134,0,0
Dataset_3_686,BC 1700,S 044,Palearctic,Europe,Italy,Grotta Zinzulusa,40,18.4,0,0,35.8284,0,0,0,0,0,0,616,0,114.155
Dataset_3_687,BC 1703,S 044,Palearctic,Europe,Italy,Grotta della Monaca,40.1,18.4,0,0,12.4853,0,0,0,0,0,0,196,0,3.24658
Dataset_3_688,BC 1725,S 045,Palearctic,Europe,Slovakia,Kostolik,48.6,19.9,0,0,37.8995,0,-35,35,4242.64,0,0,55,0,33.5862
Dataset_3_689,BC 1726,S 045,Palearctic,Europe,Slovakia,Diviacia priepast,48.7,19.9,0,63483.5,14.8995,0,-10,10,12414.2,1000,0,40,0,35.6914
Dataset_3_690,BC 1728,S 045,Palearctic,Europe,Slovakia,Martincova c.25,48.7,19.9,0,63483.5,14.8995,0,-10,10,12414.2,1000,0,40,0,35.6914
Dataset_3_691,BC 1730,S 045,Palearctic,Europe,Slovakia,Velka Driencanska jaskyna,48.4,20,0,0,14.8995,0,0,0,1414.21,0,0,97,25154,150.36
Dataset_3_692,BC 1739,S 045,Palearctic,Europe,Slovakia,Dobsinka Ladova jaskyna,48.8,20.3,0,0,14.8995,0,-25,25,16142.1,1000,0,44,0,32.9037
Dataset_3_693,BC 1741,S 045,Palearctic,Europe,Slovakia,Stratenska jaskyna,48.8,20.3,0,0,14.8995,0,-25,25,16142.1,1000,0,44,0,32.9037
Dataset_3_694,BC 1805,S 045,Palearctic,Europe,Slovakia,Marciho jaskyna,48.6,20.7,0,0,18.0711,-1,-54,55,8414.21,0,49.7359,61,0,31.557
Dataset_3_695,BC 1806,S 045,Palearctic,Europe,Slovakia,Okrajova priepast,48.6,20.7,0,0,18.0711,-1,-54,55,8414.21,0,49.7359,61,0,31.557
Dataset_3_696,BC 1875,S 045,Palearctic,Europe,Slovakia,Drienovska jaskyna,48.6,20.9,0,0,22.6569,-8,-24,33,4414.21,0,49.7359,50,0,161.302
Dataset_3_697,BC 1876,S 045,Palearctic,Europe,Slovakia,Jasovska jaskyna,48.6,20.9,0,0,27.2426,-8,-24,33,4414.21,0,49.7359,50,0,161.302
Dataset_3_698,BC 1879,S 045,Palearctic,Europe,Slovakia,Kamenna Pivnica,48.6,20.9,0,0,20.7279,-8,-24,33,4414.21,0,49.7359,50,0,161.302
Dataset_3_699,BC 1906,S 045,Palearctic,Europe,Slovakia,Zla diera,49,20.9,29,0,21.1421,0,-20,22,2000,0,0,46,0,96.8963
Dataset_3_700,BC 1915,S 047,Nearctic,North America,Canada,Peddlers Cave,44.3112,-64.3213,0,69244.8,12.5298,0,20,-21,11071.1,0,0,36,0,33.6239
Dataset_3_701,BC 1957,S 048,Nearctic,North America,United States,B220,42.09556,-123.40583,38,45609,13.4853,0,0,0,16000,0,5669.9,21,0,1.73272
Dataset_3_702,BC 2014,S 050,Nearctic,North America,United States,Lewis and Clark Caverns,45.82278,-111.85083,0,0,20.4853,15,-11,-2,12313.7,0,497.359,79,0,0.20772
Dataset_3_703,BC 2108,S 053,Nearctic,North America,Canada,Berryton,45.88333,-64.88333,0,65823.8,36.5563,0,0,0,14142.1,0,0,35,293,2.74428
Dataset_3_704,BC 2119,S 054,Nearctic,North America,United States,Lewis and Clark Caverns,45.82354,-111.85637,0,0,20.8995,15,-11,-2,11313.7,0,497.359,77,0,0.20772
Dataset_3_705,BC 2158,S 055,Nearctic,North America,United States,Lewis and Clark Caverns,45.82354,-111.85637,0,0,20.8995,15,-11,-2,11313.7,0,497.359,77,0,0.20772
Dataset_3_706,BC 2190,S 056,Austral-Oceania,Oceania,New Zealand,Grand Canyon Cave,-38.58333,175.01667,0,0,9.82843,0,0,0,30727.9,0,99.4718,55,0,1.45035
Dataset_3_707,BC 2191,S 057,Neotropical,South America,Brazil,Santana C,-24.53083,-48.70167,27,43394.1,7.24264,0,0,0,8000,1000,149.208,36,0,0.62074
Dataset_3_708,BC 2196,S 057,Neotropical,South America,Brazil,Couto,-24.53278,-48.69861,25,55709.7,5.41421,0,0,0,8000,1000,149.208,33,0,0.62074
Dataset_3_709,BC 2208,S 058,Neotropical,South America,Brazil,Fazendao,-22.41028,-47.79278,0,0,5.45127,0,0,0,4414.21,0,0,65,0,2.27496
Dataset_3_710,BC 2233,S 060,Neotropical,South America,Brazil,Ratbat Cave,18.2,-78.24,0,0,3,-4,0,13,2414.21,0,149.208,58,0,188.209
Dataset_3_711,BC 2273,S 061,Neotropical,South America,Brazil,Lapa do Trombador,-14.54028,-46.09775,0,0,-9999,0,0,0,4000,1000,0,91,0,5.6746
Dataset_3_712,BC 2320,S 065,Neotropical,South America,Brazil,Cavernas Boa BRL 1,-5.56653,-37.6979,0,0,-9999,0,0,0,3000,1000,0,92,0,5.55568
Dataset_3_713,BC 2379,S 065,Neotropical,South America,Brazil,Caverna da Pedra Lisa BRL 1,-5.04553,-37.5219,0,41138,-9999,0,0,0,4828.43,0,0,76,0,4.98467
Dataset_3_714,BC 2417,S 071,Neotropical,South America,Brazil,Caverna Planaltina,-3.375,-52.57167,25,0,2,0,29,-31,3828.43,0,0,34,0,3.36437
Dataset_3_715,BC 2421,S 071,Neotropical,South America,Brazil,Gruta Urubuquara,-3.375,-52.57167,25,0,3,0,29,-31,3828.43,0,0,34,0,3.36437
Dataset_3_716,BC 2423,S 071,Neotropical,South America,Brazil,Gruta do Arrependido,-3.375,-52.57167,25,0,3,0,29,-31,3828.43,0,0,34,0,3.36437
Dataset_3_717,BC 2426,S 071,Neotropical,South America,Brazil,Caverna Pedra da Cachoeira,-3.31194,-52.34111,0,43671.8,1,0,24,-24,5656.85,0,0,43,0,2.80239
Dataset_3_718,BC 2528,S 071,Neotropical,South America,Brazil,Gruta do Landim,-14.53994,-46.08518,0,0,-9999,0,0,0,4414.21,0,0,85,0,5.6746
Dataset_3_719,BC 2554,S 075,Neotropical,South America,Brazil,Caverna A,-15.525,-47.84167,0,0,4.62734,0,0,0,2000,1000,0,93,0,6.01625
Dataset_3_720,BC 2554,S 075,Neotropical,South America,Brazil,Caverna A,-15.525,-47.84167,0,0,4.62734,0,0,0,2000,1000,0,93,0,6.01625
Dataset_3_721,BC 2599,S 079,Neotropical,South America,Brazil,Gruta ¡gua Rasa,-15.53333,-47.73333,0,0,5.37653,0,0,0,2414.21,0,0,76,0,4.70989
Dataset_3_722,BC 2608,S 080,Neotropical,South America,Brazil,Toca do Falc„o,-15.86667,-48.18333,0,0,-9999,0,0,-2,0,1000,0,396,0,19.4432
Dataset_3_723,BC 2612,S 080,Neotropical,South America,Brazil,Gruta Muralha,-15.5,-48.15,0,0,7.65489,-1,-8,10,3828.43,1000,0,69,0,1.61446
Dataset_3_724,BC 2630,S 080,Neotropical,South America,Brazil,Gruta das OrquÌdeas,-15.48333,-48.06667,0,0,6.48335,-1,0,0,9071.07,0,0,87,0,0.74586
Dataset_3_725,BC 2663,S 080,Neotropical,South America,Brazil,Gruta Volks Clube,-15.86667,-47.8,0,0,5.48441,0,0,-4,0,1000,0,599,0,1126.35
Dataset_3_726,BC 2668,S 080,Neotropical,South America,Brazil,Toca Mata da Anta,-15.85,-47.78333,0,0,5.45127,-2,0,0,0,0,0,736,0,336.662
Dataset_3_727,BC 2701,S 088,Neotropical,South America,Brazil,Caverna Toca-do-Urubu (Potiragu·),-15.59472,-39.87667,0,0,-9999,0,0,0,0,0,0,743,0,1702.64
Dataset_3_728,BC 2919,S 106,Neotropical,South America,Brazil,Gruta Pardinha,-23.11667,-48.46667,0,0,-9999,0,0,0,2000,0,0,77,0,1.00875
Dataset_3_729,BC 2923,S 106,Neotropical,South America,Brazil,Gruta Lavrinhas 1,-22.6,-44.88333,0,0,-9999,0,0,0,1000,0,49.7359,79,0,4.41384
Dataset_3_730,BC 2928,S 108,Neotropical,South America,Brazil,Gruta do Limoeiro,-20.5625,-41.1875,0,0,-9999,0,-23,23,2000,0,0,87,0,20.0407
Dataset_3_731,BC 2934,S 111,Neotropical,South America,Brazil,Caverna (cidade de Ubatuba),-23.5,-45.11667,0,0,-9999,0,0,0,0,0,0,108,0,54.7128
Dataset_3_732,BC 2954,S 113,Neotropical,South America,Brazil,Santana B,-24.53333,-48.7,27,42514,1,0,0,0,8000,1000,149.208,33,0,0.62074
Dataset_3_733,BC 2982,S 113,Neotropical,South America,Brazil,Areias da ¡gua Quente,-24.56667,-48.66667,25,41955,22.8284,0,0,0,10656.9,0,149.208,46,0,24.4712
Dataset_3_734,BC 2986,S 113,Neotropical,South America,Brazil,Betari B,-24.58333,-48.63333,0,40893,24,0,0,0,13485.3,1000,149.208,50,0,4.32286
Dataset_3_735,BC 2999,S 114,Neotropical,South America,Brazil,Gruta das PÈrolas,-23.55,-48.73333,0,0,17.8284,-1,0,0,6656.85,0,0,60,0,2.24403
Dataset_3_736,BC 3002,S 114,Neotropical,South America,Brazil,Caverna Alambari de Cima,-24.55,-48.66667,0,51713,23.8284,0,0,0,9828.43,0,149.208,40,0,0.62074
Dataset_3_737,BC 3020,S 115,Neotropical,South America,Brazil,Gruta ¡guas Quentes,-24.56667,-48.66667,25,41955,23.8284,0,0,0,10656.9,0,149.208,46,0,24.4712
Dataset_3_738,BC 3035,S 116,Neotropical,South America,Brazil,Gruta dos Vieira,-24.53333,-48.86667,0,64944.4,8.41421,0,0,0,1414.21,0,0,68,12714,5.40777
Dataset_3_739,BC 3047,S 116,Neotropical,South America,Brazil,Gruta do Zezo,-24.51667,-48.71667,25,46520.9,7.24264,0,0,0,7000,1000,149.208,37,0,0.59216
Dataset_3_740,BC 3127,S 121,Neotropical,South America,Brazil,Caverna Toca da OnÁa,-25.47167,-49.71472,0,0,7.82843,-2,-21,24,0,0,0,378,23242,351.833
Dataset_3_741,BC 3144,S 123,Neotropical,South America,Brazil,Cavidade sobre rocha granÌtica,-28.48444,-49.25667,0,0,12.4853,0,0,0,2414.21,0,49.7359,55,0,12.6882
Dataset_3_742,BC 3148,S 124,Neotropical,South America,Brazil,Gruta de Pinheiro Seco,-25.72778,-49.54722,0,0,51.799,0,0,0,0,1000,0,92,0,25.5622
Dataset_3_743,BC 3172,S 125,Indomalayan,Asia,China,"BBQ cave, Zhutangxiang",22.72169,99.81153,0,0,12.46,0,-14,16,3000,1000,149.208,51,0,82.5662
Dataset_3_744,BC 3173,S 125,Indomalayan,Asia,China,Rainbow cow cave,22.60753,100.70819,28,0,12.4586,0,-17,18,2414.21,0,0,36,0,34.5883
Dataset_3_745,BC 3180,S 125,Palearctic,Asia,China,Gate cave,22.60686,100.71194,0,0,12.1216,0,-17,18,2414.21,0,0,42,0,34.5883
Dataset_3_746,BC 3183,S 125,Indomalayan,Asia,China,Lake cave (Luo shui cave),22.60608,100.71347,0,0,12.1169,0,-17,18,2414.21,0,0,42,0,34.5883
